site_name,Zm,g1,Albedo,Elev,MAP,MAT,Source,Dataset,N_gN_100gleaf,AGB_t_DM_ha,Ref,lat,long,LC,Koppen,hc,LAImax,DATA_START,DATA_END,hc_RS,Elev_srtm3,Elev_gtopo30,theta_fc,theta_paw,theta_r,theta_s
AL-PET,2.2,,,1765.0,,,OzFlux,,,,,-36.862222,147.320833,GRA,Cfb,0.3,,2017.0,2022.0,6.108112526951496,,1521,0.36897,0.20302,0.15537,0.54756
AR-SLu,11.0,5.5,0.11,500.0,400.0,,FLUXNET2015,,,,,-33.46480179,-66.45980072,MF,BSh,4.5,,,,1.6593241311629303,,484,0.25069,0.12656,0.11998,0.41602
AR-TF1,2.33,6.5,,40.0,,,AMF_FLX,,,,,-54.9733,-66.7335,WET,ET,,,2016.0,2018.0,2.055832872485956,,1,0.35965,0.22664,0.12536,0.51807
AR-Vir,,5.8,,,,,FLUXNET2015,F15,,196.0,1,-28.24,-56.189,ENF,Cfa,14.4,,,,1.8383632117513,,78,0.31772,0.17508,0.1362,0.47308
AT-Neu,3.0,2.9,0.16,970.0,852.0,6.5,FLUXNET2015,F15,2.906,32.0,2,47.1166687,11.31750011,GRA,Dfc,1.0,6.5,2002.0,2012.0,4.741337498813359,966.0,991,0.37552,0.23167,0.13524,0.53147
AU-ASM,13.7,,,600.0,,,OzFlux,,,,,-22.283,133.249,SAV,BWh,6.5,,2010.0,2025.0,2.3221634193226843,,592,0.2128,0.09531,0.11569,0.38189
AU-Ade,,4.2,,,,,FLUXNET2015,F15,,,3,-13.077,131.118,SAV,Aw,12.5,2.04,2007.0,2009.0,1.7612681340670324,74.0,171,0.21332,0.10028,0.11083,0.38425
AU-Boy,30.0,,,300.0,,,OzFlux,,,,,-32.477093,116.938559,EBF,Csa,13.0,,2017.0,2025.0,1.8425591158789945,,315,0.13377,0.055658,0.078071,0.39995
AU-Cow,35.0,,,86.0,,,OzFlux,,,,,-16.238189,145.42715,EBF,Am,26.0,,2009.0,2025.0,8.327938366718028,84.0,136,0.34053,0.16519,0.16729,0.494
AU-Cpr,20.0,,,60.0,,,OzFlux,,,,,-34.0027,140.5877,SAV,BSk,3.0,,2010.0,2025.0,0.3722363405336721,,84,0.20855,0.09538,0.11217,0.40609
AU-Ctr,45.0,,,66.0,,,OzFlux,,,,,-16.103219,145.446922,EBF,Am,25.0,,2010.0,2018.0,10.060677455962892,68.0,67,0.37022,0.18065,0.17977,0.51485
AU-Cum,30.0,,,27.0,,,OzFlux,,,,,-33.615278,150.723611,EBF,Cfa,24.0,,2014.0,2025.0,4.684525139070593,,124,0.25228,0.13047,0.11797,0.43104
AU-DaP,15.0,4.2,0.16,116.0,983.78,27.25,FLUXNET2015,F15,,0.0,7,-14.06330013,131.3181,GRA,Aw,0.300000012,,2008.0,2013.0,2.600772152686968,71.0,103,0.26105,0.12272,0.13447,0.42808
AU-DaS,21.0,,,110.0,,,OzFlux,,,,,-14.1592,131.3881,SAV,Aw,16.4,,2008.0,2025.0,3.172707013109898,74.0,98,0.20465,0.10046,0.10292,0.40609
AU-Dry,15.0,,,175.0,,,OzFlux,,,,,-15.2588,132.3706,SAV,Aw,0.15,,2009.0,2025.0,3.1377802551715592,176.0,191,0.21113,0.10178,0.10797,0.40802
AU-Emr,5.599999905,4.2,0.16,177.0,,,FLUXNET2015,F15,,0.0,10,-23.8586998,148.4745941,GRA,BSh,2.0,,2011.0,2013.0,0.4428340441486619,,181,0.33109,0.12308,0.19961,0.44112
AU-Fog,,6.5,,,1323.69,27.02,FLUXNET2015,F15,,,11,-12.545,131.307,WET,Aw,1.0,3.4408,2006.0,2008.0,2.156559770417434,4.0,27,0.27453,0.13154,0.13816,0.43384
AU-GWW,36.0,,,450.0,,,OzFlux,,,,,-30.1914,120.6541667,SAV,BSh,18.0,,2013.0,2024.0,2.292456171418453,,505,0.22786,0.10508,0.12043,0.3992
AU-Gin,15.0,,,46.8,,,OzFlux,,,,,-31.376351,115.71377,WSA,Csa,6.8,,2011.0,2024.0,1.3896879744001396,,99,0.15067,0.064807,0.085766,0.39991
AU-How,23.0,,,64.0,,,OzFlux,,,,,-12.4952,131.15005,WSA,Aw,16.0,,2002.0,2025.0,2.313540413156841,39.0,41,0.26611,0.13028,0.1318,0.44112
AU-Lit,30.0,,,222.0,,,OzFlux,,,,,-13.17904178,130.7945459,WSA,Aw,16.0,,2015.0,2025.0,3.6250937640646086,222.0,190,0.26865,0.12038,0.14399,0.42473
AU-Lon,4.25,,,157.0,,,OzFlux,,,,,-23.52326576,144.3104157,GRA,BSh,0.5,,2018.0,2024.0,0.229865870431542,,218,0.32369,0.11746,0.19817,0.43012
AU-Otw,10.0,5.5,,54.0,,,FLUXNET2015,,,,,-38.532341,142.816803,EBF,Cfb,0.100000001,,,,0.7231896336905056,,7,0.29221,0.15859,0.12848,0.50167
AU-RDF,,4.1,,,,,FLUXNET2015,F15,,32.0,13,-14.564,132.478,SAV,Aw,16.0,,2011.0,2013.0,1.6777917220641407,186.0,233,0.25466,0.11586,0.13555,0.42223
AU-Rgf,10.0,,,330.0,,,OzFlux,,,,,-32.506102,116.966827,CRO,Csa,1.0,,2015.0,2025.0,1.3332038625451803,,307,0.14163,0.057321,0.084233,0.37511
AU-Rig,5.0,,,152.0,,,OzFlux,,,,,-36.656,145.576,GRA,Cfa,0.4,,2011.0,2017.0,0.8864148700713177,,129,0.24843,0.11556,0.12891,0.40371
AU-Rob,46.0,,,710.0,,,FLUXNET2015,,,,,-17.11750031,145.6300964,EBF,Cfa,44.0,,2013.0,2025.0,16.18285111291074,710.0,667,0.34529,0.1626,0.17427,0.49361
AU-Sam,2.0,,,89.0,,,OzFlux,,,,,-27.38806,152.87778,GRA,Cfa,0.5,,2010.0,2017.0,8.578162331899783,,223,0.28018,0.13955,0.13585,0.45344
AU-SiP,2.5,,,860.0,,,OzFlux,,,,,-42.090556,147.0875,GRA,Cfb,0.1,,2019.0,2024.0,4.695787005521518,,878,0.31624,0.1764,0.13271,0.52214
AU-Stp,5.0,,,225.0,,,OzFlux,,,,,-17.1507,133.3502,GRA,BSh,0.5,,2008.0,2025.0,1.0407311986259355,228.0,253,0.2844,0.11848,0.16056,0.42248
AU-TTE,13.7,,,600.0,,,OzFlux,,,,,-22.283,133.249,GRA,BWh,6.5,,2012.0,2022.0,2.3221634193226843,,592,0.2128,0.09531,0.11569,0.38189
AU-Tum,70.0,,,1249.0,,,OzFlux,,,,,-35.6566,148.1516,EBF,Cfb,40.0,,2002.0,2022.0,12.603945702484468,,914,0.38036,0.20185,0.1669,0.55483
AU-WAL,110.0,,,753.0,,,OzFlux,,,,,-37.4259,145.1878,EBF,Cfb,100.0,,2005.0,2008.0,11.359714632665456,,562,0.35604,0.19013,0.15634,0.53577
AU-Wac,,5.5,,,1105.59,12.76,FLUXNET2015,F15,,348.0,14,-37.426,145.188,EBF,Cfb,80.0,5.01,2005.0,2008.0,11.357730487841897,,562,0.35604,0.19013,0.15634,0.53577
AU-War,80.0,,,108.0,,,OzFlux,,,,,-43.09502,146.65452,EBF,Cfb,55.0,,2013.0,2021.0,11.580199125337304,,38,0.37713,0.20918,0.1566,0.55577
AU-Whr,35.0,,,131.0,,,OzFlux,,,,,-36.6732,145.0294,EBF,Cfa,28.0,,2011.0,2014.0,6.482101510153066,,152,0.22042,0.11454,0.10346,0.41231
AU-Wom,33.0,,,705.0,,,OzFlux,,,,,-37.422506,144.094046,EBF,Cfb,23.0,,2010.0,2021.0,9.557477255017057,,608,0.35765,0.19683,0.15027,0.55221
AU-Wrr,92.0,,,100.0,,,FLUXNET2015,,,,,-43.09502029,146.6544952,,Cfb,90.0,,,,11.57972659848689,,38,0.37713,0.20918,0.1566,0.55577
AU-Ync,20.0,,,128.0,,,OzFlux,,,,,-34.9878,146.2908,GRA,BSk,0.5,,2012.0,2025.0,0.6062810021138991,,120,0.31199,0.10696,0.19754,0.4164
BE-Bra,39.0,5.5,,16.0,750.0,9.8,ICOS,F15,2.314,128.0,17,51.30916595,4.520559788,MF,Cfb,21.7,2.1,1996.0,2023.0,6.340062074823183,20.0,16,0.10343,0.035056,0.068371,0.4321
BE-Dor,,5.4,,,827.9,10.3,ICOS,,,,,50.311928,4.968011,GRA,Cfb,,,2011.0,2023.0,5.275423900615476,248.0,240,0.36619,0.22482,0.13544,0.47658
BE-Lcr,,5.5,,,861.3,10.6,ICOS,,,,,51.11218,3.85043,DBF,Cfb,3.71,,2019.0,2020.0,1.873954671194765,5.0,3,0.15151,0.076892,0.07411,0.37262
BE-Lon,2.700000048,5.6,0.19,167.0,800.0,10.0,ICOS,,,,,50.55158997,4.74612999,CRO,Cfb,1.0,6.0,2004.0,2023.0,1.6049264183824958,167.0,163,0.32375,0.21029,0.10914,0.4322
BE-Maa,3.0,4.6,,,839.1,10.3,ICOS,,,,,50.980183,5.631478,CSH,Cfb,1.0,,2016.0,2023.0,7.188462337911516,85.0,82,0.19485,0.115769,0.076349,0.39463
BE-Vie,40.0,4.6,0.11,493.0,1062.0,7.8,ICOS,F15,1.05,167.0,18,50.30506897,5.998050213,MF,Cfb,34.6,5.1,1996.0,2023.0,7.063455502477715,494.0,495,0.37104,0.23567,0.12774,0.51985
BR-Ban,,4.1,,,,,,LT,,143.0,19,-9.824,-50.159,EBF,Aw,18.0,,,,8.122789236304662,177.0,163,0.29409,0.1471,0.14121,0.4452
BR-CST,10.0,,,468.0,642.0,25.2,AMF_FLX,,,,,-7.9682,-38.3842,DNF,Aw,,,2014.0,2015.0,2.2011360307696224,469.0,477,0.26738,0.12139,0.14071,0.40277
BR-Ma2,,4.1,,,,,,LT,4.435,276.0,20,-2.609,-60.209,EBF,Af,35.0,5.16,,,20.972109761583443,114.0,67,0.33305,0.15065,0.17464,0.46748
BR-Npw,20.0,3.7,,120.0,1486.0,24.9,AMF_FLX,,,,,-16.498,-56.412,WSA,Aw,,,2013.0,2017.0,4.1856430462353,124.0,137,0.25857,0.13543,0.11833,0.41148
BR-Sa1,66.8,4.1,,88.0,2074.79,26.13,FLUXNET2015,F15,2.219,250.5,21,-2.857,-54.959,EBF,Am,40.0,5.18,2002.0,2011.0,19.20935283232241,198.0,89,0.36346,0.14854,0.20458,0.48972
BR-Sa3,64.0,4.1,0.11,100.0,2043.77,26.12,FLUXNET2015,F15,,268.0,21,-3.018029213,-54.97143555,EBF,Am,40.0,5.21,2000.0,2004.0,17.499479628416136,179.0,100,0.35395,0.142,0.20224,0.48184
BW-Ma1,12.60000038,3.9,,929.0,,,FLUXNET2015,LT,,6.0,22,-19.91650009,23.56032944,SAV,BSh,8.0,1.1,,,1.0851076663248689,949.0,929,0.10721,0.027732,0.079477,0.39318
CA-ARB,7.5,6.5,,90.0,700.0,-1.3,AMF_FLX,,,,,52.695,-83.9452,WET,Dfc,,,2011.0,2015.0,0.4264897095595307,90.0,106,0.41049,0.23284,0.1643,0.57656
CA-ARF,7.5,6.5,,88.0,700.0,-1.3,AMF_FLX,,,,,52.7008,-83.955,WET,Dfc,,,2011.0,2015.0,0.4353187332210247,88.0,100,0.40059,0.23002,0.15774,0.57221
CA-CF1,4.0,6.5,,16.5,452.0,-6.5,AMF_FLX,,,,,58.6658,-93.83,WET,Dfc,,,2007.0,2008.0,0.0067125577477394,22.0,20,0.36414,0.21106,0.14445,0.5229
CA-Ca1,45.0,2.5,,300.0,1369.0,9.93,AMF_FLX,LT,1.35,240.0,23,49.867,-125.334,ENF,Cfb,32.5,8.4,1996.0,2010.0,5.170800473991747,326.0,329,0.42103,0.27942,0.12847,0.58881
CA-Ca2,10.0,2.5,,300.0,1474.0,9.86,AMF_FLX,LT,1.0,82.0,23,49.87,-125.291,ENF,Csb,1.0,1.365,1999.0,2010.0,5.600702700494341,195.0,160,0.32758,0.22235,0.098932,0.50192
CA-Ca3,21.0,2.5,,,,,,LT,1.0,152.5,23,49.535,-124.9,ENF,Csb,7.57,4.7,,,6.144188840071744,169.0,126,0.41947,0.28182,0.12582,0.58098
CA-Cbo,44.0,4.7,,120.0,876.34,6.66,AMF_FLX,,,,,44.3167,-79.9333,DBF,Dfb,,,1994.0,2020.0,7.303587043649344,224.0,204,0.31234,0.19955,0.10624,0.5012
CA-DB2,3.0,6.5,,4.0,,,AMF_FLX,,,,,49.119,-122.9951,WET,Cfb,,,2019.0,2020.0,1.3499025098527275,2.0,4,0.28379,0.186618,0.091797,0.47853
CA-DBB,4.25,6.5,,4.0,1128.0,10.0,AMF_FLX,,,,,49.1293,-122.9849,WET,Cfb,,,2014.0,2020.0,1.5043929149209774,3.0,4,0.28724,0.188334,0.093276,0.48528
CA-ER1,5.0,4.0,,370.0,946.0,6.7,AMF_FLX,,,,,43.6405,-80.4123,CRO,Dfb,,,2015.0,2020.0,2.1362585115499093,369.0,365,0.39905,0.24977,0.1402,0.54315
CA-Gro,43.0,5.5,,340.0,831.0,1.3,FLUXNET2015,F15,1.466,98.0,24,48.2167,-82.1556,MF,Dfb,31.0,4.3,2003.0,2014.0,12.009042800897497,350.0,360,0.5031,0.27676,0.1869,0.68573
CA-LP1,26.0,2.5,,751.0,570.0,2.0,AMF_FLX,,,,,55.1119,-122.8414,ENF,Dfc,,,2007.0,2022.0,9.197511618970283,748.0,798,0.49363,0.28918,0.17238,0.66971
CA-Let,6.0,3.3,,,,,,LT,2.025,0.0,25,49.709,-112.94,GRA,BSk,0.365,1.22,,,0.3298954703832752,935.0,928,0.30626,0.14844,0.15158,0.42076
CA-MA1,3.0,4.0,,261.0,514.0,2.6,AMF_FLX,,,,,50.1645,-97.8762,CRO,Dfb,,,2009.0,2011.0,2.107537295819123,258.0,259,0.40484,0.21521,0.17778,0.55456
CA-MA2,3.0,4.0,,261.0,514.0,2.6,AMF_FLX,,,,,50.171,-97.8762,CRO,Dfb,,,2009.0,2011.0,2.154830782250649,258.0,259,0.41412,0.22196,0.17964,0.56351
CA-MA3,3.0,3.6,,261.0,514.0,2.6,AMF_FLX,,,,,50.1774,-97.8686,GRA,Dfb,,,2009.0,2011.0,2.217082140067689,258.0,258,0.41235,0.21892,0.1806,0.56504
CA-Man,30.0,,,259.0,520.0,-3.2,FLUXNET2015,,,,,55.8796,-98.4808,ENF,Dfc,,,1994.0,2008.0,3.5512617568766625,262.0,253,0.42816,0.19836,0.21452,0.56365
CA-Mer,4.0,6.5,,,,,,LT,0.92,14.0,26,45.409,-75.519,WET,Dfb,0.25,1.3,,,4.085605234460194,69.0,67,0.45799,0.25283,0.18164,0.63499
CA-NS1,24.0,5.8,0.1,260.0,500.29,-2.89,FLUXNET2015,F15,0.675,47.0,27,55.87919998,-98.48390198,ENF,Dfc,20.0,5.68,2001.0,2005.0,3.552241136967048,267.0,253,0.42729,0.19415,0.21751,0.56282
CA-NS2,20.0,5.8,0.1,260.0,499.82,-2.88,FLUXNET2015,F15,0.657,38.0,6,55.90579987,-98.52469635,ENF,Dfc,20.0,7.8,2001.0,2005.0,3.778773303822249,272.0,257,0.44564,0.2053,0.22221,0.58598
CA-NS3,10.0,5.8,,260.0,502.22,-2.87,AMF_FLX,F15,1.11,36.0,6,55.912,-98.382,ENF,Dfc,4.0,5.33,2001.0,2005.0,3.8894035037946,258.0,258,0.51831,0.21853,0.26543,0.65903
CA-NS4,10.0,5.8,0.1,260.0,502.22,-2.87,FLUXNET2015,,,,,55.91439819,-98.38059998,ENF,Dfc,7.0,,2001.0,2005.0,3.9078588095119886,252.0,258,0.51831,0.21853,0.26543,0.65903
CA-NS5,9.0,5.8,0.1,260.0,500.34,-2.86,FLUXNET2015,F15,0.915,51.0,6,55.86309814,-98.48500061,ENF,Dfc,5.0,5.49,2001.0,2005.0,3.3953554435054323,263.0,254,0.45661,0.21592,0.22084,0.60355
CA-NS6,6.0,3.9,0.25,244.0,495.37,-3.08,FLUXNET2015,F15,1.95,51.0,6,55.91669846,-98.96440125,OSH,Dfc,4.0,2.97,2001.0,2005.0,3.709710589953972,271.0,245,0.40385,0.19315,0.19862,0.53752
CA-NS7,6.0,3.9,0.25,297.0,483.27,-3.52,FLUXNET2015,F15,1.36,37.0,6,56.63579941,-99.94830322,OSH,Dfc,0.25,1.36,2001.0,2005.0,3.371672176787889,273.0,290,0.41339,0.20007,0.2,0.55436
CA-Oas,39.0,4.7,,530.0,428.53,0.34,FLUXNET2015,F15,2.376,89.0,28,53.629,-106.198,DBF,Dfc,21.0,3.04,1996.0,2010.0,8.98553939630927,595.0,579,0.45705,0.27538,0.16324,0.62104
CA-Obs,26.0,2.5,,628.94,405.6,0.79,FLUXNET2015,F15,0.843,53.0,29,53.987,-105.118,ENF,Dfc,11.0,3.41,1997.0,2010.0,5.230585112332322,594.0,599,0.48595,0.26595,0.17217,0.69017
CA-Ojp,29.0,2.5,,,,,,LT,1.099,92.0,30,53.916,-104.692,ENF,Dfb,16.7,2.06,,,2.818404523082208,517.0,516,0.42548,0.23422,0.15061,0.66162
CA-Qcu,7.5,5.8,,392.0,,,FLUXNET2015,LT,,27.0,31,49.2670784,-74.03652954,ENF,Dfb,5.5,0.77,,,1.4695955751258392,419.0,413,0.4314,0.25866,0.14281,0.64184
CA-Qfo,24.0,5.8,0.1,382.0,962.32,-0.36,FLUXNET2015,F15,0.754,44.0,32,49.69250107,-74.34210205,ENF,Dfc,14.0,3.7,2003.0,2010.0,2.225690305715624,388.0,384,0.48141,0.27956,0.16423,0.67361
CA-SF1,12.1,2.5,0.1,536.0,470.0,0.4,FLUXNET2015,F15,0.95,85.0,33,54.48500061,-105.8175964,ENF,Dfc,6.0,3.4,2003.0,2006.0,2.696453430560158,567.0,572,0.50898,0.2728,0.18817,0.69976
CA-SF2,9.144,2.5,0.1,520.0,470.0,0.4,AMF_FLX,F15,1.07,57.0,33,54.2539,-105.8775,ENF,Dfc,4.0,3.0,2001.0,2006.0,3.4099990369871045,510.0,512,0.47351,0.26975,0.1733,0.65878
CA-SF3,18.288,3.9,0.25,540.0,470.0,0.4,FLUXNET2015,F15,1.35,57.0,33,54.09159851,-106.0053024,OSH,Dfc,1.0,1.1,2001.0,2006.0,5.428159188439426,545.0,555,0.45002,0.2584,0.16521,0.64152
CA-SJ1,10.0,2.5,,,,,,LT,1.5,61.0,34,53.908,-104.656,ENF,Dfb,1.7,1.14,,,2.78669226230047,514.0,518,0.40534,0.22795,0.14374,0.64543
CA-SJ2,5.0,2.5,,,,,,LT,,52.0,35,53.945,-104.649,ENF,Dfc,0.19,0.18,,,2.5885043918238195,520.0,523,0.38061,0.22048,0.13539,0.62178
CA-TP1,13.6,5.8,,265.0,1036.0,8.0,AMF_FLX,F15,2.13,54.0,36,42.661,-80.56,ENF,Dfb,6.5,0.45,2002.0,2017.0,6.100315534207842,202.0,200,0.28511,0.17466,0.10503,0.47747
CA-TP2,15.0,5.8,,212.0,1036.0,8.0,FLUXNET2015,F15,1.34,112.0,36,42.7744,-80.4588,ENF,Dfb,11.5,12.8,2002.0,2007.0,6.840915887850465,234.0,240,0.27514,0.1663,0.10371,0.48789
CA-TP3,20.5,5.8,,184.0,1036.0,8.0,AMF_FLX,F15,1.13,206.0,36,42.707,-80.348,ENF,Dfb,16.2,5.9,2002.0,2017.0,4.6501660663329725,226.0,216,0.28127,0.17173,0.10389,0.50266
CA-TP4,34.3,5.8,,212.0,1036.0,8.0,FLUXNET2015,F15,1.385,197.0,37,42.7102,-80.3574,ENF,Dfb,23.4,8.0,2002.0,2014.0,5.118194661452241,232.0,219,0.28362,0.17333,0.10445,0.50669
CA-TPD,36.6,4.7,,260.0,1036.0,8.0,FLUXNET2015,F15,,190.0,37,42.635,-80.558,DBF,Dfb,25.7,3.98,2012.0,2014.0,5.112482904621847,213.0,196,0.29449,0.17538,0.11333,0.48372
CA-WP1,9.0,6.5,,,,,,LT,1.15,56.0,38,54.954,-112.467,WET,Dfc,3.4,2.61,,,6.528231559942928,544.0,553,0.48384,0.26929,0.17923,0.67152
CG-Tch,,3.8,,82.0,1150.0,25.7,FLUXNET2015,F15,,4.0,,-4.289,11.656,SAV,Aw,2.0,,2006.0,2009.0,4.412046183450929,87.0,1,0.221,0.11064,0.1087,0.42486
CH-Aws,2.0,4.2,,,918.0,2.3,ICOS,,,,,46.583194,9.790417,GRA,ET,0.3,2.5,2006.0,2020.0,1.4090021616344743,1989.0,2087,0.35037,0.23441,0.10817,0.52678
CH-Cha,2.0,4.8,0.16,393.0,1136.0,9.5,ICOS,F15,2.626,15.0,39,47.21022034,8.410440445,GRA,Cfb,0.5,4.85,2005.0,2020.0,2.8770531400966157,390.0,392,0.32315,0.19304,0.12399,0.474
CH-Dav,35.0,3.3,0.1,1639.0,1062.0,2.8,ICOS,F15,1.13,102.0,"40,41",46.81533432,9.855919838,ENF,ET,25.0,5.5,1997.0,2023.0,2.7213258460123075,1651.0,1726,0.38215,0.24271,0.12911,0.55567
CH-Fru,2.549999952,4.2,0.16,982.0,1651.0,7.2,ICOS,F15,2.135,42.0,42,47.11583328,8.537779808,GRA,Cfb,0.4,4.85,2005.0,2020.0,5.09598085049386,978.0,1013,0.41498,0.24278,0.16171,0.55368
CH-Lae,40.0,4.6,,689.0,1100.0,8.3,ICOS,,,,,47.478333,8.364389,MF,Cfb,34.6,5.1,2004.0,2020.0,6.240529685381301,699.0,674,0.38026,0.22294,0.14937,0.51277
CH-Oe1,2.0,4.8,0.16,450.0,1100.0,9.0,FLUXNET2015,F15,,0.0,43,47.28583145,7.731939793,GRA,Cfb,0.5,4.85,2002.0,2008.0,6.99295386417669,451.0,451,0.33346,0.19198,0.13538,0.46237
CH-Oe2,2.700000048,5.6,,452.0,1155.0,9.8,ICOS,,,,,47.286417,7.73375,CRO,Cfb,1.0,6.0,2004.0,2020.0,7.019811020095264,449.0,449,0.33746,0.19268,0.13851,0.46575
CN-Cha,40.0,5.5,0.11,754.0,663.59,2.16,FLUXNET2015,F15,1.91,117.0,44,42.40250015,128.0957947,MF,Dwb,28.0,6.0,2003.0,2005.0,8.602412697218732,767.0,751,0.38998,0.23903,0.1432,0.51837
CN-Cng,2.0,3.8,0.16,138.0,,,FLUXNET2015,F15,,0.0,,44.59339905,123.509201,GRA,BSk,0.75,,2007.0,2010.0,0.0759382338806931,143.0,127,0.25599,0.13301,0.11806,0.40023
CN-Dan,2.099999905,3.8,0.16,4751.0,246.88,-1.54,FLUXNET2015,,,,,30.49780083,91.06639862,GRA,Dwc,1.0,,2004.0,2005.0,0.0010591116700867,4313.0,4323,0.22234,0.12197,0.09639,0.38715
CN-Din,32.0,4.6,0.11,261.0,1618.1,19.64,FLUXNET2015,F15,1.72,91.0,,23.17329979,112.5361023,EBF,Cfa,30.0,4.0,2003.0,2005.0,5.962146113879759,292.0,321,0.30094,0.16531,0.1298,0.45706
CN-Du2,3.0,3.8,0.16,1331.0,318.96,2.01,FLUXNET2015,F15,,0.0,45,42.04669952,116.2835999,GRA,Dwb,0.5,,2006.0,2008.0,0.1750728918171835,1321.0,1333,0.26302,0.14239,0.11562,0.39547
CN-Ha2,,6.5,,,,,FLUXNET2015,F15,,0.0,,37.609,101.327,WET,Dwc,0.65,2.8,2003.0,2005.0,0.0,3200.0,3197,0.30771,0.18327,0.11903,0.44819
CN-HaM,2.200000048,3.8,0.16,3975.0,,,FLUXNET2015,F15,2.938,0.0,46,37.36999893,101.1800003,GRA,ET,0.300000012,2.8,2002.0,2004.0,0.005167068549776,4004.0,3982,0.32438,0.20379,0.1145,0.48385
CN-Qia,39.59999847,3.5,0.1,64.0,1466.75,18.95,FLUXNET2015,F15,1.23,88.0,,26.74139977,115.0580978,ENF,Cfa,13.0,3.5,2003.0,2005.0,3.0887805547926384,112.0,84,0.3221,0.17399,0.14194,0.44849
CZ-BK1,35.0,5.1,,875.0,1316.0,6.7,ICOS,,,,,49.50207615,18.53688247,ENF,Dfb,25.0,7.6,2004.0,2023.0,13.3377199858087,867.0,855,0.36237,0.23638,0.11799,0.52856
CZ-BK2,,2.9,,855.0,1316.0,6.7,FLUXNET2015,F15,,169.0,,49.494,18.543,GRA,Dfb,0.1,,2004.0,2012.0,13.123625081484288,849.0,836,0.35937,0.23531,0.11644,0.52302
CZ-KrP,5.0,5.6,,,620.0,7.1,ICOS,,,,,49.573257,15.078773,CRO,Cfb,3.0,,2014.0,2020.0,4.580227317586684,540.0,491,0.30328,0.19159,0.10645,0.45908
CZ-Lnz,40.0,4.6,,,550.0,9.3,ICOS,,,,,48.681611,16.946416,MF,Cfb,34.6,2.9,2015.0,2023.0,4.01744132497132,170.0,162,0.27403,0.15567,0.1134,0.44073
CZ-RAJ,35.0,3.9,,,681.0,7.1,ICOS,,,,,49.4437236,16.6965125,ENF,Cfb,25.0,7.6,2012.0,2020.0,6.122824814026754,648.0,601,0.34376,0.22117,0.11569,0.50667
CZ-Stn,43.5,5.5,,,685.0,8.7,ICOS,,,,,49.035975,17.9699,DBF,Cfb,35.0,6.6,2010.0,2020.0,9.449649529796208,561.0,595,0.38221,0.2381,0.13659,0.51632
CZ-wet,2.700000048,6.5,,426.0,604.0,7.7,ICOS,F15,,22.0,,49.02465057,14.77035046,WET,Cfb,1.0,0.9,2006.0,2023.0,6.0677034388124165,425.0,425,0.29314,0.17388,0.11396,0.44874
DE-Akm,8.0,6.5,,-1.0,558.0,8.7,ICOS,F15,,49.0,,53.86617,13.68342,WET,Cfb,4.0,0.9,2009.0,2020.0,2.149313890446812,-1.0,2,0.28374,0.15716,0.12137,0.46436
DE-Bay,31.0,5.1,,781.0,,,FLUXNET2015,LT,,163.0,47,50.14194107,11.86693954,ENF,Cfb,25.0,5.6,,,4.1449786628734,782.0,834,0.36118,0.23454,0.11783,0.53826
DE-Gds,31.0,4.1,,,883.0,8.3,ICOS,,,,,56.0737,9.3341,EBF,Cfb,25.0,,,,4.78105953061988,90.0,84,0.26412,0.1602,0.099113,0.52924
DE-Geb,6.0,5.6,0.19,161.5,470.0,8.5,ICOS,,,,,51.10010147,10.91429996,CRO,Cfb,1.0,6.0,2001.0,2023.0,1.1472675571698243,159.0,156,0.31668,0.17887,0.1322,0.439
DE-Gri,3.0,2.9,0.16,385.0,877.0,8.4,ICOS,F15,,142.0,48,50.94947052,13.51253033,GRA,Cfb,0.82,6.5,2004.0,2023.0,4.470380463012536,375.0,377,0.36868,0.23709,0.12366,0.52638
DE-Hai,43.5,5.5,0.11,430.0,720.0,8.3,ICOS,F15,2.317,185.0,49,51.07916641,10.45300007,DBF,Cfb,35.0,6.6,2000.0,2023.0,5.705889382857691,458.0,431,0.39822,0.24254,0.14742,0.52675
DE-HoH,43.5,5.5,,,563.0,9.1,ICOS,,,,,52.085306,11.219222,DBF,Cfb,35.0,4.2,2015.0,2023.0,1.4180790960451983,209.0,186,0.32526,0.21501,0.10494,0.47314
DE-Hte,8.0,6.5,,0.2,645.0,9.2,ICOS,,,,,54.210278,12.176111,WET,Cfb,4.0,0.9,,,4.056944701999036,3.0,2,0.30588,0.18115,0.11815,0.50575
DE-Hzd,43.5,5.5,,,901.0,7.8,ICOS,,,,,50.96381,13.48978,DBF,Cfb,35.0,6.6,2010.0,2023.0,4.290569413493719,398.0,394,0.3608,0.23735,0.11604,0.52072
DE-Kli,3.5,5.6,0.12,478.0,842.0,7.6,ICOS,,,,,50.89305878,13.52237988,CRO,Cfb,1.5,6.0,2004.0,2023.0,4.287469601945475,480.0,475,0.32744,0.20599,0.1161,0.46146
DE-Lkb,,3.9,,1308.0,1599.0,4.0,FLUXNET2015,F15,,70.0,50,49.0996,13.3047,ENF,Dfb,2.0,,2009.0,2013.0,9.670048738365486,1315.0,1180,0.36483,0.238,0.11799,0.53952
DE-Lnf,,5.5,,451.0,894.6,6.96,FLUXNET2015,F15,,142.0,51,51.3282,10.3678,DBF,Cfb,35.0,4.2,2002.0,2012.0,4.072613877706278,473.0,457,0.40154,0.24734,0.14639,0.52172
DE-Meh,3.0,4.6,,291.0,,,FLUXNET2015,LT,1.41,0.0,52,51.27531052,10.65546989,MF,Cfb,1.0,2.9,,,2.593247639450924,289.0,303,0.35499,0.20867,0.14034,0.46533
DE-Obe,30.0,5.1,0.1,734.0,996.0,5.5,ICOS,F15,,163.0,,50.78665924,13.72128963,ENF,Cfb,20.5,7.6,2008.0,2020.0,6.790176423416201,743.0,699,0.3589,0.23412,0.11638,0.53334
DE-RuR,2.0,5.4,,514.7,1033.0,7.7,ICOS,,,,,50.6219142,6.3041256,GRA,Cfb,0.3,3.0,2011.0,2023.0,8.668785447280221,514.0,525,0.34464,0.21734,0.12155,0.47583
DE-RuS,2.0,5.6,,102.755,700.0,10.0,ICOS,,,,,50.86590702,6.447144704,CRO,Cfb,1.0,6.0,2011.0,2023.0,2.244911369682983,101.0,108,0.31638,0.1917,0.11999,0.42202
DE-RuW,23.5,4.7,,,,,ICOS,,,,,50.50490703,6.33101886,ENF,Cfb,19.0,2.1,2012.0,2023.0,8.401300327100914,624.0,619,0.41958,0.25138,0.15745,0.56053
DE-Seh,2.0,5.6,0.19,103.0,693.0,9.9,FLUXNET2015,,,,,50.87062454,6.449649811,CRO,Cfb,0.800000012,,2007.0,2010.0,2.0747780377576204,103.0,107,0.31638,0.1917,0.11999,0.42202
DE-SfN,4.300000191,6.5,,590.0,1127.0,8.6,FLUXNET2015,F15,,65.0,,47.80638885,11.32750034,WET,Cfb,2.0,,2012.0,2014.0,5.55761891781382,595.0,594,0.30551,0.19091,0.10833,0.49476
DE-Spw,,6.5,,61.0,558.0,8.7,FLUXNET2015,F15,,141.0,,51.892,14.034,WET,Cfb,23.8,,2010.0,2014.0,4.933384469682146,60.0,51,0.23275,0.138396,0.091281,0.45578
DE-Tha,42.0,5.1,0.1,380.0,843.0,8.2,ICOS,F15,1.4,188.0,53,50.9636116,13.56694031,ENF,Cfb,29.4,7.6,1996.0,2023.0,5.09527574777365,388.0,295,0.34257,0.21947,0.11611,0.50774
DE-Wet,29.39999962,5.1,,703.0,,,FLUXNET2015,LT,1.4,214.5,51,50.45349884,11.45753002,ENF,Cfb,22.0,7.7,,,9.024468042152856,790.0,726,0.40473,0.25708,0.13695,0.56361
DE-Zrk,,,,0.0,584.0,8.7,FLUXNET2015,,,,,53.8759,12.889,WET,Cfb,,,2013.0,2014.0,2.6675166189347417,-2.0,3,0.32699,0.18057,0.13972,0.47651
DK-Eng,,,,10.0,613.0,8.0,FLUXNET2015,,,,,55.6905,12.1918,GRA,Cfb,,,2005.0,2008.0,1.1787400002851969,15.0,19,0.2558,0.14409,0.10751,0.44324
DK-Fou,3.5,,,51.0,,8.0,FLUXNET2015,,,,,56.48419952,9.587220192,CRO,Cfb,1.0,,,,2.3609518288551925,61.0,52,0.21307,0.125455,0.085371,0.44203
DK-Lva,2.5,,,-2493.0,,,FLUXNET2015,,,,,55.68330002,12.08329964,,Cfb,0.5,,,,1.107601254991443,20.0,14,0.27095,0.15739,0.10875,0.45718
DK-NuF,,6.5,,,,,,F15,,,54,64.131,-51.386,WET,ET,0.1,,,,,,354,0.29113,0.19076,0.093447,0.51209
DK-Ris,2.0,,,24.0,,,FLUXNET2015,,,,,55.53028107,12.09722042,,Cfb,1.0,,,,1.7247014861266212,17.0,23,0.28274,0.16201,0.11551,0.45516
DK-Sor,57.0,5.7,,40.0,660.0,8.2,ICOS,F15,2.27,123.0,55,55.48587036,11.64463997,DBF,Cfb,29.2,5.0,1996.0,2023.0,2.2531318980592263,46.0,35,0.26348,0.15799,0.10096,0.4721
DK-ZaH,3.0,5.4,,38.0,,,FLUXNET2015,F15,,,56,74.47319794,-20.5503006,GRA,ET,0.5,,,,,,52,0.3257,0.20203,0.11568,0.52546
ES-Abr,8.0,3.8,,,,,ICOS,,,,,38.701839,-6.785881,SAV,Csa,4.0,2.0,2015.0,2020.0,0.3014390205120051,280.0,281,0.27761,0.14668,0.1256,0.41038
ES-Agu,,4.4,,,,,ICOS,,,,,36.940046,-2.033208,OSH,BSh,,,2006.0,2020.0,0.0155723605866606,202.0,205,0.27455,0.13523,0.13379,0.40375
ES-Amo,,,,58.0,0.0,,FLUXNET2015,,,,,36.8336,-2.2523,OSH,BSh,,,2007.0,2012.0,0.0139336241692828,57.0,57,0.2546,0.12789,0.12171,0.39472
ES-Cnd,,3.7,,,474.0,15.8,ICOS,,,,,37.914998,-3.227659,WSA,BSk,,,2014.0,2020.0,0.8917857214620128,366.0,358,0.31315,0.15429,0.15262,0.42326
ES-ES1,13.0,4.5,,1.0,,,FLUXNET2015,LT,,,57,39.34597015,-0.318809986,ENF,Csa,7.5,3.63,,,0.186925735895138,4.0,1,0.31553,0.16516,0.14402,0.45283
ES-ES2,1.600000024,,,7.0,,,FLUXNET2015,,,,,39.27555847,-0.31527999,,Csa,0.5,,,,0.2041856430275428,0.0,5,0.38165,0.18478,0.18748,0.49919
ES-LJu,,4.4,,1600.0,400.0,16.0,ICOS,F15,,,59,36.926594,-2.752115,OSH,Csa,0.5,,2004.0,2020.0,0.8235270165723361,1613.0,1619,0.28163,0.15008,0.12618,0.41858
ES-LM1,8.0,3.8,,,700.0,16.0,ICOS,,,,,39.94269,-5.778683,SAV,Csa,4.0,2.0,2014.0,2020.0,1.3827535368723216,264.0,284,0.28346,0.14762,0.13035,0.41792
ES-LM2,8.0,3.8,,,700.0,16.0,ICOS,,,,,39.934592,-5.775881,SAV,Csa,4.0,2.0,2014.0,2020.0,1.3768711734320225,268.0,283,0.2842,0.14898,0.12974,0.4209
ES-LMa,15.0,3.8,,278.0,,,FLUXNET2015,LT,1.32,,60,39.9426918,-5.773359776,SAV,Csa,8.0,2.0,,,1.391775124242099,266.0,278,0.28202,0.14628,0.13026,0.41568
ES-LgS,1.5,4.4,0.25,2267.0,,,FLUXNET2015,F15,,,58,37.09793472,-2.965830088,OSH,Csb,0.200000003,,2007.0,2009.0,3.1235741637972168,2263.0,2300,0.31414,0.18599,0.12232,0.46305
ES-VDA,1.5,4.8,,1787.0,,,FLUXNET2015,LT,,96.0,,42.15217972,1.448500037,GRA,Cfb,0.5,1.4,,,5.83198059608524,1770.0,1791,0.35567,0.20568,0.14246,0.50138
FI-Hyy,23.0,2.4,0.1,181.0,709.0,3.8,ICOS,F15,1.258,105.0,61,61.84749985,24.29500008,ENF,Dfc,18.45,6.7,1996.0,2023.0,7.018065222957239,,185,0.36536,0.24204,0.11291,0.55525
FI-Jok,,,,109.0,627.0,4.6,FLUXNET2015,,,,,60.8986,23.5134,CRO,Dfb,,,2000.0,2003.0,4.890481334626389,,112,0.45025,0.25649,0.17984,0.58901
FI-Kaa,5.0,6.5,,159.0,,,FLUXNET2015,LT,,19.0,62,69.14069366,27.29503059,WET,Dfc,0.800000012,0.7,,,2.636985380457678,,159,0.2919,0.193549,0.091102,0.51468
FI-Ken,,,,,484.0,-1.4,ICOS,,,,,67.98721,24.24301,ENF,Dfc,,,2018.0,2023.0,2.848851144137769,,331,0.3422,0.2326,0.10108,0.53436
FI-Let,27.0,2.4,,111.0,627.0,4.6,ICOS,F15,,123.0,63,60.64183,23.95952,ENF,Dfb,19.2,6.7,2009.0,2023.0,8.542843000773393,,107,0.37547,0.24385,0.12071,0.5606
FI-Lom,3.0,6.5,,274.0,484.0,-1.4,FLUXNET2015,F15,,40.0,64,67.99720001,24.20918083,WET,Dfc,0.400000006,1.0,,,2.889323813206818,,280,0.31916,0.21815,0.093008,0.52383
FI-Qvd,,5.6,,,650.0,54.0,ICOS,,,,,60.295242,22.391607,CRO,Dfb,,,2018.0,2020.0,4.150622040693784,,14,0.42647,0.2389,0.17146,0.5966
FI-Sii,8.0,6.5,,160.0,701.0,3.5,ICOS,,,,,61.83265,24.19285,WET,Dfc,4.0,0.9,2016.0,2023.0,7.022123181972557,,173,0.38633,0.25118,0.12426,0.56305
FI-Sod,23.0,2.4,0.1,180.0,500.0,-1.0,FLUXNET2015,F15,1.05,56.0,65,67.36186218,26.63783073,ENF,Dfc,12.69999981,1.2,2001.0,2014.0,3.966176178455663,,188,0.29957,0.200466,0.091556,0.51739
FI-Var,35.0,2.4,,,601.0,-0.5,ICOS,,,,,67.7549,29.61,ENF,Dfc,25.0,1.2,2016.0,2023.0,2.0541867928037045,,344,0.34252,0.23572,0.097386,0.54167
FR-Aur,,5.6,,,,12.9,ICOS,,,,,43.54965,1.10615,CRO,Cfa,,,2005.0,2023.0,2.6681031698426625,245.0,260,0.32981,0.1703,0.15325,0.43761
FR-Bil,35.0,4.5,,,930.0,12.8,ICOS,,,,,44.493672,-0.956082,ENF,Cfb,25.0,3.2,2014.0,2023.0,5.751274015533452,38.0,39,0.25119,0.13594,0.11082,0.4169
FR-EM2,2.0,5.6,,,680.0,10.8,ICOS,,,,,49.8721083,3.02065,CRO,Cfb,1.0,6.0,,,1.0244197846083345,84.0,87,0.32962,0.19624,0.12838,0.43041
FR-FBn,,4.6,,,700.0,13.6,ICOS,,,,,43.2403,5.6786,MF,Csa,,,2008.0,2023.0,3.956467304107504,430.0,406,0.32596,0.17642,0.14315,0.45744
FR-Fon,35.0,5.5,,103.0,720.0,10.2,FLUXNET2015,F15,2.4,132.0,66,48.47639847,2.780139923,DBF,Cfb,24.0,5.2,,,9.172553409990073,103.0,93,0.30244,0.18005,0.11731,0.43236
FR-Gri,3.170000076,5.6,0.12,125.0,650.0,12.0,FLUXNET2015,,,,,48.84421921,1.951910019,CRO,Cfb,1.0,,,,4.545032885664859,121.0,114,0.32604,0.18127,0.13922,0.43167
FR-Hes,18.0,5.5,,293.0,820.0,9.2,ICOS,LT,2.3,127.0,67,48.67416,7.065559864,DBF,Cfb,16.0,4.6,2014.0,2023.0,6.008208611076176,315.0,300,0.34493,0.19581,0.1427,0.46881
FR-LBr,38.0,4.5,0.1,61.0,900.0,13.6,FLUXNET2015,F15,1.26,71.0,68,44.71710968,-0.769299984,ENF,Cfb,20.0,3.2,1996.0,2008.0,5.835401000805354,74.0,60,0.25172,0.13442,0.1134,0.43436
FR-LGt,,6.5,,,880.0,11.0,ICOS,,,,,47.322917,2.284102,WET,Cfb,,,2017.0,2020.0,9.167356705716283,155.0,160,0.25567,0.157549,0.093767,0.41555
FR-Lam,,5.6,,,,12.55,ICOS,,,,,43.496437,1.237878,CRO,Cfa,,,2005.0,2023.0,1.8836691723768544,181.0,181,0.30009,0.163,0.13172,0.41359
FR-Lq1,2.0,,,1066.0,,,FLUXNET2015,,,,,45.64305878,2.735830069,,Cfb,0.5,,,,5.263215515936949,1042.0,1062,0.35922,0.2175,0.1346,0.50094
FR-Lq2,2.0,,,1081.0,,,FLUXNET2015,,,,,45.63919067,2.737030029,,Cfb,0.5,,,,5.266955678004581,1022.0,1089,0.36324,0.21773,0.13822,0.50272
FR-Pue,11.0,4.1,,270.0,883.0,13.5,FLUXNET2015,F15,1.23,96.0,69,43.74139023,3.595829964,EBF,Csa,6.5,2.9,2000.0,2014.0,2.2419682685674864,273.0,253,0.33854,0.18387,0.14785,0.47081
FR-Tou,,,,,638.0,13.8,ICOS,,,,,43.572855,1.37474,GRA,Cfa,,,2018.0,2023.0,1.713820613327185,162.0,156,0.29497,0.16049,0.12901,0.42105
GA-PA,2.9,,,254.0,,,OzFlux,,,,,-37.390033,141.960897,GRA,Cfb,0.05,,2015.0,2021.0,2.4450147815170293,,233,0.27473,0.13405,0.13659,0.45559
GF-Guy,55.0,4.1,0.11,48.0,3041.0,25.7,FLUXNET2015,F15,1.59,275.5,70,5.278771877,-52.92485809,EBF,Am,35.0,6.74,,,16.854928585153388,49.0,29,0.36387,0.16707,0.18748,0.49131
GH-Ank,,4.1,,124.0,1900.0,26.0,FLUXNET2015,F15,,184.0,71,5.2685,-2.6942,EBF,Aw,27.0,,2011.0,2014.0,8.25531587846493,125.0,76,0.29065,0.1377,0.1476,0.45236
GL-Dsk,,,,,420.0,-3.0,ICOS,,,,,69.25349,-53.51413,SNO,ET,,,2020.0,2023.0,,,-9999,0.33679,0.19805,0.13076,0.51966
HU-Bug,4.0,2.9,,106.0,,,FLUXNET2015,LT,2.15,0.0,,46.69110107,19.60129929,GRA,Cfb,1.0,4.7,,,3.267693541497776,106.0,106,0.22165,0.11467,0.10486,0.42098
HU-Mat,,2.9,,,,,,LT,,110.0,,47.847,19.726,GRA,Cfb,0.2,,,,5.491517327851653,303.0,317,0.31705,0.1711,0.13973,0.453
ID-Pag,41.0,,,30.0,2546.0,26.2,FLUXNET2015,,,,,-2.319999933,113.9000015,EBF,Af,26.0,,,,6.09447108277307,23.0,69,0.58075,0.26532,0.2661,0.73238
IE-Ca1,1.899999976,,,72.0,,,FLUXNET2015,,,,,52.85879135,-6.918139935,,Cfb,0.899999976,,,,1.0790953526500466,58.0,55,0.34755,0.20165,0.13862,0.49694
IE-Cra,,6.5,,,820.0,9.6,ICOS,,,,,53.323088,-7.641774,WET,Cfb,,,2020.0,2020.0,1.5378807977138869,56.0,70,0.31583,0.19132,0.11758,0.50683
IE-Dri,6.0,5.4,,186.0,,,FLUXNET2015,LT,,5.0,,51.98669052,-8.751810074,GRA,Cfb,0.5,,,,1.821389220995382,187.0,189,0.35488,0.21913,0.12857,0.50565
IL-Yat,15.0,4.5,,,285.0,18.2,ICOS,LT,0.974,0.0,72,31.34504459,35.05198851,ENF,Csa,10.0,2.5,2000.0,2020.0,0.1365976845626579,657.0,674,0.30641,0.1351,0.16464,0.41298
IS-Gun,,5.7,,,,,,LT,,0.0,,63.833,-20.217,DBF,Cfc,,,,,0.022373892856944,,63,0.33588,0.21932,0.10853,0.52645
IT-Amp,4.0,2.9,,991.0,,,FLUXNET2015,LT,1.599,36.0,73,41.90409851,13.60515976,GRA,Cfb,0.5,2.5,,,6.319671043905029,833.0,991,0.34583,0.17939,0.15927,0.46843
IT-BCi,2.0,5.6,0.19,20.0,600.0,18.0,ICOS,,,,,40.5237999,14.95744038,CRO,Csa,1.0,6.0,2004.0,2023.0,0.7018599880000774,10.0,10,0.32237,0.15984,0.15608,0.43353
IT-BFt,,4.9,,,650.0,13.2,ICOS,,,,,45.197755,10.741966,DBF,Cfa,,,2019.0,2023.0,0.8237674034735182,37.0,21,0.2957,0.16331,0.12685,0.43459
IT-CA1,8.0,4.7,0.11,200.0,766.0,14.0,FLUXNET2015,F15,,0.0,74,42.38040924,12.02655983,DBF,Csa,5.5,,,,3.006611119470359,204.0,210,0.31418,0.1567,0.15132,0.42324
IT-CA2,3.200000048,5.6,0.12,200.0,766.0,14.0,FLUXNET2015,,,,,42.37722015,12.02604008,CRO,Csa,0.300000012,,,,3.095065223320511,201.0,210,0.31418,0.1567,0.15132,0.42324
IT-CA3,7.0,4.7,0.11,197.0,766.0,14.0,FLUXNET2015,F15,,0.0,74,42.38000107,12.02219963,DBF,Csa,3.5,,2011.0,2014.0,2.8731779796497974,197.0,199,0.31617,0.15595,0.15396,0.4243
IT-Col,25.20000076,4.7,0.11,1560.0,1180.0,6.3,FLUXNET2015,F15,2.503,168.0,75,41.84936142,13.58813953,DBF,Cfb,13.0,6.6,1996.0,2014.0,7.896499729727165,1532.0,1641,0.38311,0.22267,0.15189,0.52198
IT-Cp2,20.0,4.1,,19.0,805.0,15.2,ICOS,F15,,115.0,76,41.70426559,12.35729313,EBF,Csa,12.8,3.5,2012.0,2023.0,2.9517436721193056,16.0,3,0.31305,0.16784,0.1389,0.46463
IT-Cpz,15.0,4.1,0.11,68.0,780.0,15.6,FLUXNET2015,F15,1.5,139.0,77,41.70524979,12.37611008,EBF,Csa,13.0,3.5,1997.0,2009.0,3.0625374226598354,16.0,10,0.30761,0.166,0.13548,0.46428
IT-Isp,38.0,4.9,0.11,210.0,1300.0,12.2,FLUXNET2015,,,,,45.81264114,8.633580208,DBF,Cfa,19.0,,2013.0,2014.0,6.379186539245759,225.0,208,0.2924,0.17924,0.10813,0.44255
IT-LMa,28.0,,,350.0,,,FLUXNET2015,,,,,45.15258026,7.582590103,,Cfa,25.0,,,,2.419587388228534,311.0,279,0.29045,0.1707,0.11459,0.43695
IT-La2,,4.5,,1350.0,1150.0,7.2,,F15,,180.0,78,45.954,11.285,ENF,Cfb,28.0,,,,8.952138681433015,1390.0,1236,0.4213,0.25823,0.15143,0.57214
IT-Lav,33.0,4.5,0.1,1353.0,1291.0,7.8,FLUXNET2015,,,,,45.95619965,11.28131962,ENF,Cfb,28.0,,,,8.995617631757616,1367.0,1319,0.4213,0.25823,0.15143,0.57214
IT-Lsn,8.0,4.4,,,1083.0,13.1,ICOS,,,,,45.740481,12.750297,OSH,Cfa,4.0,1.5,2016.0,2023.0,0.3681058458695052,-1.0,5,0.34069,0.17598,0.15805,0.45157
IT-MBo,2.5,2.9,0.16,1550.0,1214.0,5.1,FLUXNET2015,F15,2.139,30.0,79,46.01467896,11.04582977,GRA,Dfb,0.300000012,2.5,,,8.644256938266823,1561.0,1509,0.40514,0.2518,0.1427,0.56093
IT-Mal,3.0,2.9,,1610.0,,,FLUXNET2015,LT,,157.0,73,46.1140213,11.70333958,GRA,Dfc,0.5,,,,7.107429515863875,1699.0,1572,0.39901,0.25116,0.13845,0.54778
IT-Noe,3.0,4.6,0.25,25.0,588.0,15.9,FLUXNET2015,F15,,97.0,80,40.60617828,8.151689529,CSH,Csa,1.200000048,2.1,2004.0,2014.0,0.8115341123256694,26.0,37,0.32252,0.16802,0.14783,0.46227
IT-Non,13.0,4.6,,14.0,,,FLUXNET2015,LT,,0.0,81,44.69018936,11.0910902,MF,Cfa,7.0,1.7,,,0.6422636932990624,17.0,15,0.34875,0.17357,0.16797,0.45838
IT-PT1,30.0,4.9,0.11,60.0,984.0,12.7,FLUXNET2015,F15,,28.0,82,45.20087051,9.061039925,DBF,Cfa,26.0,4.45,2002.0,2004.0,2.016199924651514,65.0,70,0.3075,0.17135,0.13046,0.44021
IT-Ren,40.0,3.3,0.1,1730.0,809.3,4.7,FLUXNET2015,F15,1.237,144.5,83,46.58686066,11.43369007,ENF,Dfc,28.0,5.11,,,8.483364567443894,1741.0,1812,0.34366,0.22385,0.11241,0.51729
IT-Ro1,20.0,4.9,0.11,235.0,876.2,15.15,FLUXNET2015,F15,,77.0,84,42.4081192,11.93000984,DBF,Csa,15.0,4.3,2000.0,2008.0,2.0692867348473443,173.0,163,0.32376,0.16347,0.15392,0.43546
IT-Ro2,20.0,4.9,0.11,160.0,876.2,15.15,FLUXNET2015,F15,,94.0,85,42.39025879,11.92092991,DBF,Csa,15.0,4.08,2002.0,2012.0,2.1142892066984484,160.0,150,0.30871,0.1545,0.14812,0.42199
IT-SR2,23.5,4.5,0.1,4.0,920.0,14.2,ICOS,,,,,43.73202896,10.29090977,ENF,Csa,19.0,5.11,2013.0,2023.0,2.47418289530573,12.0,2,0.33097,0.17198,0.15174,0.48433
IT-SRo,23.5,4.5,0.1,6.0,920.0,14.2,FLUXNET2015,,,,,43.7278595,10.28444004,ENF,Csa,16.0,,1999.0,2012.0,2.459792638386738,12.0,2,0.33097,0.17198,0.15174,0.48433
IT-Tor,2.0,4.2,,2160.0,2.9,2.9,ICOS,F15,1.13,70.0,86,45.84444,7.578055,GRA,ET,0.2,2.2,2008.0,2023.0,3.1205884176312733,2158.0,2160,0.36988,0.24103,0.11947,0.54615
JP-SMF,19.0,,,199.0,,,FLUXNET2015,,,,,35.26169968,137.0787964,MF,Cfa,8.100000381,,,,5.990976894591357,203.0,181,0.31649,0.18159,0.12889,0.46169
JP-Tef,,5.5,,,,,,LT,1.63,111.0,,45.056,142.106,MF,Dfb,25.0,7.4,,,9.55790837208884,79.0,81,0.3435,0.22468,0.11161,0.51461
JP-Tom,,5.5,,,,,,LT,,55.0,87,42.739,141.515,MF,Dfb,15.0,9.2,,,13.29765845630178,135.0,122,0.35214,0.22798,0.11705,0.51195
MX-Tes,13.0,4.7,,460.0,647.0,24.3,AMF_FLX,,,,,27.8446,-109.2977,DBF,BSh,,,2004.0,2008.0,1.591226940499994,467.0,465,0.32586,0.12903,0.18897,0.4313
MY-PSO,,4.6,,,,,FLUXNET2015,F15,2.099,315.0,88,2.973,102.3062,EBF,Af,35.0,6.52,2003.0,2009.0,10.7195153290674,147.0,122,0.33781,0.16367,0.16645,0.47501
NL-Ca1,3.0,5.4,,1.0,,,FLUXNET2015,LT,,3.0,89,51.97100067,4.927000046,GRA,Cfb,0.5,3.0,,,0.6233543754253393,0.0,1,0.357,0.1659,0.18303,0.46328
NL-Hor,4.699999809,,,2.200000048,800.0,10.0,FLUXNET2015,,,,,52.24034882,5.07130003,GRA,Cfb,1.0,,2004.0,2011.0,2.5843240007153017,-3.0,-2,0.33173,0.18535,0.13919,0.49478
NL-Loo,27.0,4.7,0.1,25.0,786.0,9.8,ICOS,F15,1.992,154.0,90,52.1665802,5.743559837,ENF,Cfb,18.7,2.1,,,7.346218251773847,34.0,25,0.067632,0.005559,0.062073,0.46683
NO-Adv,,6.5,,,,,,F15,,,,78.186,15.923,WET,ET,0.4,,,,0.0,,15,0.33056,0.21083,0.11338,0.49309
PA-SPn,,4.7,,78.0,2350.0,26.5,FLUXNET2015,F15,1.555,24.0,91,9.318,-79.635,DBF,Am,12.0,5.4,2007.0,2009.0,6.6120395396348055,78.0,83,0.33237,0.15755,0.16743,0.45808
PA-SPs,,4.2,,68.0,2350.0,26.5,FLUXNET2015,F15,,27.0,91,9.314,-79.631,GRA,Am,0.09,,2007.0,2009.0,6.379183901337327,79.0,75,0.34862,0.1602,0.18018,0.46915
PE-QFR,40.0,6.5,,104.0,,,AMF_FLX,,,,,-3.8344,-73.319,WET,Af,,,2018.0,2019.0,9.026456656525587,100.0,110,0.26201,0.14768,0.11019,0.46283
PL-wet,2.5,,,55.0,,,FLUXNET2015,,,,,52.7621994,16.30940056,,Cfb,1.0,,,,10.955412986255531,57.0,55,0.20507,0.117687,0.08624,0.50664
PT-Esp,33.0,4.1,,90.0,,,FLUXNET2015,LT,,0.0,92,38.63940048,-8.601799965,EBF,Csa,20.0,4.5,,,2.403752039151714,93.0,87,0.24034,0.1293,0.10714,0.41508
PT-Mi1,29.0,4.1,,230.0,,,FLUXNET2015,LT,1.5,0.0,93,38.54064178,-8.000060081,EBF,Csa,7.300000191,2.3,,,1.848700658386207,231.0,232,0.24778,0.13331,0.11001,0.40876
PT-Mi2,2.5,4.8,,193.0,,,FLUXNET2015,LT,,0.0,93,38.47650146,-8.024550438,GRA,Csa,0.100000001,2.5,,,1.257726511405328,192.0,197,0.25427,0.13601,0.11343,0.39986
RU-Che,5.300000191,6.5,,6.0,197.0,-11.0,FLUXNET2015,F15,,0.0,94,68.61303711,161.3414307,WET,Dsc,0.400000006,,,,0.131099072628776,,3,0.45965,0.30204,0.14562,0.5907
RU-Cok,,3.9,,48.0,232.0,-14.3,,F15,,0.0,95,70.829,147.494,OSH,Dfc,0.5,1.5,,,0.0,,5,0.42626,0.26465,0.1505,0.56959
RU-Fy2,27.0,3.5,,,3.9,3.9,ICOS,,,,,56.447603,32.901878,ENF,Dfb,18.7,3.0,2015.0,2020.0,9.949550218585358,276.0,266,0.40302,0.27104,0.12218,0.56067
RU-Fyo,48.0,3.5,0.1,265.0,3.9,3.9,ICOS,F15,1.26,141.0,96,56.46152878,32.92208099,ENF,Dfb,27.5,3.0,1998.0,2020.0,10.644089031987114,275.0,274,0.38438,0.25051,0.1241,0.55289
RU-Ha1,,3.8,,446.0,591.87,-0.07,FLUXNET2015,F15,,0.0,97,54.725,90.002,GRA,Dfb,0.5,,2002.0,2004.0,0.0150682022858565,446.0,471,0.34137,0.20919,0.12561,0.49033
RU-SkP,,,,246.0,,,FLUXNET2015,F15,,17.0,,62.255,129.168,DNF,Dfd,18.0,1.0,2012.0,2014.0,5.374970596537444,,211,0.49133,0.29883,0.17416,0.63163
RU-Zot,30.0,3.5,,124.0,,,FLUXNET2015,LT,0.99,82.0,98,60.80080032,89.35079956,ENF,Dfc,12.0,1.5,,,4.323010023130301,,120,0.36913,0.22887,0.13168,0.53121
SD-Dem,2.5,3.8,0.19,500.0,320.0,26.0,FLUXNET2015,F15,,0.0,99,13.28289986,30.47830009,SAV,BWh,1.5,1.4,2005.0,2009.0,0.0,537.0,608,0.16619,0.07293,0.092929,0.37372
SE-Deg,1.799999952,6.5,,270.0,523.0,1.2,ICOS,LT,,26.0,100,64.18196869,19.55653954,WET,Dfc,0.05,0.9,2001.0,2023.0,6.508230034545825,,275,0.33047,0.22317,0.09756,0.54125
SE-Fla,,2.4,,,,,,LT,1.15,88.0,47,64.113,19.457,ENF,Dfc,12.7,3.4,,,6.157643557808881,,309,0.33844,0.22673,0.10258,0.53896
SE-Htm,27.0,5.1,,,707.0,7.4,ICOS,,,,,56.09763,13.41897,ENF,Cfb,18.7,7.6,2015.0,2023.0,8.888208485601009,115.0,115,0.27295,0.17105,0.096099,0.51218
SE-Lnn,2.0,5.6,,,558.0,6.0,ICOS,,,,,58.34062958,13.10176754,CRO,Cfb,1.0,6.0,,,0.8410381022566575,71.0,68,0.33359,0.18798,0.13883,0.48003
SE-Nor,27.0,2.4,,,527.0,5.5,ICOS,,,,,60.08649722,17.47950278,ENF,Cfb,18.7,6.7,2014.0,2023.0,7.26809189775681,,35,0.35195,0.22035,0.11959,0.56455
SE-Ros,27.0,2.4,,,614.0,1.8,ICOS,,,,,64.1725,19.738,ENF,Dfc,18.7,3.4,2014.0,2020.0,6.713175909545419,,169,0.35175,0.2423,0.099295,0.54947
SE-St1,,6.5,,351.0,303.3,-0.7,,F15,,34.0,101,68.354,19.05,WET,Dfc,0.05,,,,0.7061601032564794,,366,0.33521,0.23037,0.097491,0.52043
SE-Svb,27.0,2.4,,,614.0,1.8,ICOS,,,,,64.25611,19.7745,ENF,Dfc,18.7,3.4,2014.0,2023.0,6.129689022187683,,263,0.34657,0.23166,0.10387,0.55437
SN-Dhr,,3.8,,40.0,404.0,29.0,FLUXNET2015,F15,,0.0,102,15.403,-15.432,SAV,BWh,1.58,,2010.0,2013.0,0.0206904237141229,42.0,58,0.16027,0.074673,0.085286,0.38404
UK-EBu,,5.4,,,,,,LT,,18.0,,55.866,-3.206,GRA,Cfb,0.4,3.9,,,2.011671408250355,188.0,197,0.33755,0.20109,0.12927,0.50169
UK-Gri,15.39999962,4.7,,343.0,,,FLUXNET2015,LT,0.9,186.0,103,56.6072197,-3.79805994,ENF,Cfb,10.0,7.0,,,3.982478411896824,348.0,346,0.32142,0.20968,0.10478,0.50982
UK-Ham,28.0,,,76.0,,,FLUXNET2015,,,,,51.15353012,-0.858299971,,Cfb,22.0,,,,4.990162212069595,83.0,77,0.33092,0.19126,0.13375,0.457
UK-PL3,30.5,,,104.0,,,FLUXNET2015,,,,,51.45000076,-1.266669989,,Cfb,22.0,,,,3.4731876665638626,137.0,110,0.33301,0.19208,0.13482,0.46333
US-A32,3.77,3.4,,335.0,889.0,33.9,AMF_FLX,,,,,36.8193,-97.8198,GRA,Cfa,,,2015.0,2017.0,0.0529921500662656,338.0,335,0.31086,0.17843,0.12748,0.41304
US-A74,3.77,3.8,,337.0,889.0,33.9,AMF_FLX,,,,,36.8085,-97.5489,CRO,Cfa,,,2016.0,2017.0,0.3450824853687882,338.0,335,0.3158,0.18393,0.12696,0.41657
US-ALQ,2.4,6.5,,,,,AMF_FLX,,,,,46.0308,-89.6067,WET,Dfb,,,2015.0,2023.0,11.503737131575232,496.0,503,0.29774,0.19423,0.097128,0.50126
US-AR1,3.13,3.4,0.16,611.0,,,FLUXNET2015,F15,,0.0,104,36.42670059,-99.41999817,GRA,Cfa,1.0,,2009.0,2012.0,0.6527239653453645,618.0,608,0.23539,0.13061,0.10036,0.38918
US-AR2,3.25,3.6,0.16,646.0,,,FLUXNET2015,F15,,0.0,105,36.63579941,-99.59750366,GRA,Cfa,1.0,,2009.0,2012.0,0.086056722925601,647.0,643,0.18435,0.100935,0.081348,0.37776
US-ARM,60.0,3.8,0.19,314.0,843.0,14.76,AMF_FLX,,,,,36.6058,-97.4888,CRO,Cfa,0.5,,2003.0,2023.0,0.4967882718136276,320.0,312,0.31827,0.18254,0.13065,0.42056
US-ARb,4.0,3.4,,424.0,,,AMF_FLX,,,,,35.5497,-98.0402,GRA,Cfa,,,2005.0,2006.0,0.3463820677758263,429.0,424,0.28054,0.15718,0.11842,0.39768
US-ARc,4.05,3.4,,424.0,,,AMF_FLX,,,,,35.5465,-98.04,GRA,Cfa,,,2005.0,2006.0,0.3390804597701147,424.0,424,0.27025,0.14978,0.11551,0.39483
US-Atq,-0.065,6.5,,15.0,93.0,-9.7,,F15,,0.0,,70.47,-157.409,WET,ET,0.3,1.1,,,0.0,,15,0.35709,0.21661,0.12891,0.56239
US-Aud,4.0,,,1466.0,,,FLUXNET2015,,,,,31.59070015,-110.509201,GRA,BSk,0.5,,,,0.4426368651860236,1472.0,1466,0.2675,0.12152,0.1407,0.40303
US-BRG,3.0,4.2,,180.0,1200.0,11.8,AMF_FLX,,,,,39.2167,-86.5406,GRA,Cfa,,,2016.0,2020.0,9.103181961650757,181.0,184,0.33614,0.21776,0.11375,0.44745
US-BZB,3.0,6.5,,100.0,274.0,-2.4,AMF_FLX,,,,,64.6955,-148.3208,WET,Dfb,,,2011.0,2022.0,4.679719280144872,,119,0.45143,0.32013,0.12234,0.56923
US-BZF,2.0,6.5,,95.0,274.0,-2.4,AMF_FLX,,,,,64.7013,-148.3121,WET,Dfb,,,2011.0,2022.0,4.708386860960755,,125,0.44196,0.3221,0.11159,0.56396
US-BZS,5.0,2.5,,100.0,274.0,-2.4,AMF_FLX,,,,,64.6963,-148.3235,ENF,Dfb,,,2010.0,2021.0,4.7547981860385145,,119,0.45143,0.32013,0.12234,0.56923
US-BZo,2.2,6.5,,100.0,274.0,-2.4,AMF_FLX,,,,,64.6936,-148.33,WET,Dfb,,,2018.0,2022.0,4.802653506649889,,119,0.43792,0.31721,0.11287,0.55688
US-Bar,26.5,4.7,,270.0,1245.77,5.61,FLUXNET2015,,,,,44.06464005,-71.28807831,DBF,Dfb,21.0,,2004.0,2022.0,15.62784995425435,278.0,283,0.29846,0.199884,0.092436,0.49618
US-Bi1,3.9,3.8,,-2.7,338.0,16.0,AMF_FLX,,,,,38.0992,-121.4993,CRO,Csa,,,2016.0,2021.0,0.273831232591227,-5.0,1,0.36383,0.16432,0.19099,0.46563
US-Bi2,5.11,3.8,,-5.0,338.0,16.0,AMF_FLX,,,,,38.1091,-121.5351,CRO,Csa,,,2017.0,2021.0,0.2852907000040068,-9.0,-2,0.3745,0.18385,0.18214,0.48483
US-Bkg,4.0,3.6,,495.0,,,FLUXNET2015,LT,,0.0,106,44.34529114,-96.83616638,GRA,Dfa,1.0,3.0,,,0.6934747962296798,495.0,496,0.32175,0.17583,0.1401,0.43738
US-Blo,15.0,2.6,0.1,1315.0,1226.0,11.09,FLUXNET2015,F15,1.407,236.0,107,38.89530182,-120.6327515,ENF,Csb,4.699999809,4.63,1997.0,2007.0,10.795356580159936,1329.0,1280,0.33366,0.20378,0.12332,0.49012
US-Bo1,3.0,,,217.0,,,FLUXNET2015,,,,,40.00619888,-88.29039764,CRO,Cfa,3.0,,,,0.3250219405168211,219.0,218,0.34481,0.19197,0.14705,0.44137
US-Brw,4.18,6.5,,,,,,LT,,0.0,108,71.323,-156.626,WET,ET,0.1,1.1,,,0.0,,2,0.38266,0.23122,0.14118,0.55058
US-CF1,2.1,3.8,,794.0,550.0,9.0,AMF_FLX,,,,,46.7815,-117.0821,CRO,Csb,,,2017.0,2021.0,0.5559423561073009,792.0,823,0.32567,0.19039,0.13024,0.41779
US-CF2,2.1,3.8,,807.0,550.0,9.0,AMF_FLX,,,,,46.784,-117.0908,CRO,Csa,,,2017.0,2020.0,0.4838328862963635,792.0,818,0.32049,0.19005,0.12559,0.41554
US-CF3,2.1,3.8,,795.0,550.0,9.0,AMF_FLX,,,,,46.7551,-117.1261,CRO,Csa,,,2017.0,2021.0,0.2272048222071672,781.0,792,0.31763,0.18865,0.12419,0.41455
US-CF4,2.1,3.8,,795.0,550.0,9.0,AMF_FLX,,,,,46.7518,-117.1285,CRO,Csa,,,2017.0,2021.0,0.2168021680216802,785.0,792,0.31763,0.18865,0.12419,0.41455
US-CRT,2.5,4.0,,180.0,849.0,10.1,AMF_FLX,,,,,41.6285,-83.3471,CRO,Dfa,,,2011.0,2013.0,1.0879677210612466,179.0,179,0.34965,0.17831,0.16437,0.45724
US-CS1,2.5,4.0,,328.0,830.0,7.0,AMF_FLX,,,,,44.1031,-89.5379,CRO,Dfb,,,2018.0,2019.0,4.672353575804123,336.0,334,0.24155,0.14059,0.096978,0.42668
US-CS2,31.0,5.8,,328.0,830.0,7.0,AMF_FLX,,,,,44.1467,-89.5002,ENF,Dfb,,,2018.0,2022.0,4.412982908091022,347.0,335,0.19555,0.11406,0.080195,0.45006
US-CS3,2.5,4.0,,328.0,830.0,7.0,AMF_FLX,,,,,44.1394,-89.5727,CRO,Dfb,,,2019.0,2020.0,3.9533003179708346,328.0,330,0.20661,0.119484,0.084464,0.4091
US-CS4,2.5,4.0,,328.0,830.0,7.0,AMF_FLX,,,,,44.1597,-89.5475,CRO,Dfb,,,2020.0,2021.0,3.773709160326259,331.0,331,0.2237,0.127603,0.093088,0.42444
US-Cop,3.0,3.9,0.16,1520.0,,,FLUXNET2015,F15,,0.0,109,38.09000015,-109.3899994,GRA,BSk,0.5,,2001.0,2007.0,0.2494277568066822,1907.0,1935,0.2437,0.12624,0.11249,0.37762
US-DFC,30.0,4.0,,264.9,787.0,7.65,AMF_FLX,,,,,43.3448,-89.7117,CRO,Dfb,,,2018.0,2022.0,5.8833805476865,259.0,258,0.28653,0.17572,0.10604,0.42903
US-DS3,2.76,3.8,,-7.0,432.0,16.0,AMF_FLX,,,,,38.1235,-121.549,CRO,Csa,,,2021.0,2023.0,0.2597466326172951,-7.0,-3,0.35927,0.16928,0.18192,0.46648
US-Dk1,4.8,4.2,,,,,,LT,,136.0,,35.971,-79.093,GRA,Cfa,0.55,2.0,,,11.77035773366419,172.0,168,0.27129,0.16478,0.10188,0.42101
US-Dk2,41.8,4.7,,,,,,LT,1.85,141.0,110,35.974,-79.1,DBF,Cfa,25.0,7.03,,,11.85463812014762,176.0,168,0.27129,0.16478,0.10188,0.42101
US-EDN,4.34,6.5,,,,,AMF_FLX,,,,,37.6156,-122.114,WET,Csb,,,2018.0,2019.0,0.8314929662683403,0.0,9,0.40217,0.20594,0.18565,0.53048
US-EML,3.94,3.9,,662.0,378.0,-1.0,AMF_FLX,,,,,63.8784,-149.2536,OSH,Dfc,,,2008.0,2020.0,1.203526050756455,,679,0.46307,0.31601,0.13423,0.60109
US-FPe,3.5,3.6,,638.0,,,FLUXNET2015,LT,,0.0,,48.30770111,-105.1018982,GRA,BSk,0.300000012,2.5,,,0.0021506827363431,633.0,642,0.29687,0.12886,0.16153,0.39626
US-FR2,7.97,3.8,,,,,,LT,1.75,43.0,111,29.949,-97.996,SAV,Cfa,,2.8,,,4.767381632246499,269.0,259,0.30423,0.14246,0.15537,0.42599
US-Fcr,2.3,3.9,,265.0,,-2.4,AMF_FLX,,,,,65.3968,-148.9348,OSH,Dfc,,,2011.0,2014.0,2.594057695629642,,286,0.45495,0.29803,0.14361,0.59899
US-Fmf,23.0,2.6,,2160.0,546.0,9.5,AMF_FLX,,,,,35.1426,-111.7273,ENF,Csb,,,2005.0,2010.0,4.838223772863545,2200.0,2232,0.30036,0.1547,0.13985,0.41924
US-Fuf,23.0,2.6,,2180.0,562.0,8.7,AMF_FLX,,,,,35.089,-111.762,ENF,Csb,,,2005.0,2010.0,5.763089402000648,2222.0,2231,0.32835,0.1803,0.14185,0.45317
US-GBT,30.2,2.6,,3191.0,1200.0,0.8,FLUXNET2015,F15,,108.0,,41.366,-106.24,ENF,Dfc,14.9,3.0,1999.0,2006.0,3.9874418515611536,3192.0,3137,0.33942,0.214,0.11854,0.50304
US-GLE,30.2,2.6,0.1,3197.0,1200.0,0.8,FLUXNET2015,F15,,108.0,,41.36650085,-106.2398987,ENF,Dfc,10.0,4.5,2005.0,2020.0,3.990121471441287,3199.0,3137,0.33942,0.214,0.11854,0.50304
US-Goo,4.0,4.2,0.16,87.0,1425.77,15.89,FLUXNET2015,F15,,26.0,112,34.25469971,-89.87349701,GRA,Cfa,0.300000012,2.0,2002.0,2006.0,7.286109527128345,95.0,91,0.32121,0.21838,0.098829,0.43428
US-HB1,4.89,6.5,,0.1,1429.0,18.3,AMF_FLX,,,,,33.3455,-79.1957,WET,Cfa,,,2019.0,2022.0,3.622653390110885,0.0,2,0.3276,0.18261,0.13812,0.48578
US-HB2,32.92,5.8,,4.7,1429.0,18.3,AMF_FLX,,,,,33.3242,-79.244,ENF,Cfa,,,2019.0,2019.0,4.957889905318998,12.0,4,0.26814,0.15148,0.112,0.45278
US-HB3,6.1,5.8,,7.3,1429.0,18.3,AMF_FLX,,,,,33.3482,-79.2322,ENF,Cfa,,,2019.0,2022.0,4.859129525273223,14.0,5,0.26561,0.1518,0.10931,0.45874
US-HWB,5.0,,,378.0,1006.35,10.1,AMF_FLX,,,,,40.8608,-77.8488,CVM,Cfa,,,2015.0,2018.0,7.704094603443623,349.0,361,0.3539,0.21438,0.1339,0.46273
US-Ha1,29.0,4.7,,340.0,1071.0,6.62,FLUXNET2015,F15,1.972,187.0,113,42.53779984,-72.17150116,DBF,Dfb,25.0,5.2,1991.0,2020.0,11.950136970879612,354.0,351,0.28461,0.190457,0.087799,0.50049
US-Hn2,3.25,3.3,,117.5,197.0,12.8,AMF_FLX,,,,,46.6889,-119.4641,GRA,BWk,,,2015.0,2018.0,0.0062527720042786,116.0,119,0.236,0.13219,0.099156,0.37184
US-Hn3,3.25,3.9,,120.9,197.0,12.8,AMF_FLX,,,,,46.6878,-119.4614,OSH,BWk,,,2017.0,2018.0,0.0086006730961553,119.0,119,0.236,0.13219,0.099156,0.37184
US-Ho1,31.0,5.8,,60.0,1070.0,5.27,FLUXNET2015,LT,1.16,194.0,114,45.20410156,-68.74019623,ENF,Dfb,20.0,5.8,,,11.377786949227056,85.0,69,0.30612,0.20339,0.096312,0.5011
US-Ho2,28.3,5.8,,61.0,1064.0,5.13,AMF_FLX,,,,,45.2091,-68.747,ENF,Dfb,,,1999.0,2023.0,11.514298015858776,93.0,84,0.31527,0.21095,0.097633,0.50651
US-IB2,3.76,4.2,,226.5,930.25,9.04,FLUXNET2015,,,,,41.8406,-88.241,GRA,Dfa,,,2004.0,2011.0,3.519947640999374,226.0,228,0.32774,0.17915,0.1427,0.44035
US-ICh,3.8,3.9,,940.0,318.0,-7.4,AMF_FLX,,,,,68.6068,-149.2958,OSH,ET,,,2007.0,2023.0,0.0,,975,0.4909,0.29385,0.17304,0.65133
US-ICs,2.56,6.5,,920.0,318.0,-7.4,AMF_FLX,,,,,68.6058,-149.311,WET,ET,,,2007.0,2023.0,0.0,,915,0.51798,0.3011,0.1855,0.67814
US-ICt,3.0,3.9,,930.0,318.0,-7.4,AMF_FLX,,,,,68.6063,-149.3041,OSH,ET,,,2007.0,2023.0,0.0,,958,0.51229,0.3009,0.18231,0.67135
US-Ivo,3.8,6.5,,568.0,304.0,-8.28,,F15,,0.0,115,68.487,-155.75,WET,ET,0.3,,,,0.0,,554,0.56132,0.31763,0.20857,0.70149
US-Jo1,10.0,3.9,,1188.0,245.1,14.7,AMF_FLX,,,,,32.582,-106.635,OSH,BWk,,,2010.0,2022.0,0.00034449348692,1396.0,1400,0.21623,0.10737,0.10476,0.36604
US-Jo2,7.1,3.9,,1469.0,282.3,17.5,AMF_FLX,,,,,32.5849,-106.6032,OSH,BWk,,,2010.0,2020.0,0.0027447983380515,1466.0,1468,0.24226,0.11368,0.12378,0.38028
US-KFS,3.0,3.4,,310.0,1014.0,12.0,AMF_FLX,,,,,39.0561,-95.1907,GRA,Cfa,,,2007.0,2019.0,4.281685405480238,335.0,332,0.35919,0.20294,0.15011,0.4581
US-KLS,3.0,3.4,,373.0,812.0,12.0,AMF_FLX,,,,,38.7745,-97.5684,GRA,Cfa,,,2012.0,2019.0,0.9556618946448786,381.0,382,0.31004,0.16607,0.13841,0.41828
US-KS1,18.0,5.8,,1.0,1266.0,21.9,AMF_FLX,,,,,28.4583,-80.6709,ENF,Cfa,,,2002.0,2003.0,1.7905495715071933,6.0,1,0.21285,0.135847,0.073888,0.44329
US-KS2,4.1,2.9,0.25,3.0,1294.0,21.66,AMF_FLX,F15,1.2,30.0,116,28.6086,-80.6715,CSH,Cfa,2.0,2.5,1999.0,2006.0,1.3486882690086015,5.0,1,0.24494,0.156741,0.083938,0.46716
US-KS3,2.85,6.5,,0.0,1340.0,22.3,AMF_FLX,,,,,28.7084,-80.7427,WET,Cfa,,,2018.0,2018.0,0.8894305116654339,2.0,1,0.37358,0.23381,0.12919,0.55559
US-Kon,3.0,3.4,,417.0,867.0,12.77,AMF_FLX,,,,,39.0824,-96.5603,GRA,Cfa,,,2004.0,2019.0,1.8757870805120336,445.0,427,0.38091,0.20516,0.16843,0.47472
US-LPH,,4.7,,,,,,LT,,150.0,,42.542,-72.185,DBF,Dfb,16.5,4.5,,,11.85484309770628,385.0,330,0.27831,0.183492,0.089394,0.48194
US-LS2,6.4,3.8,,1240.0,288.0,17.0,AMF_FLX,,,,,31.5659,-110.1344,SAV,BSk,,,2002.0,2007.0,0.340855649902025,1242.0,1232,0.28526,0.12319,0.15592,0.40303
US-LWW,3.0,,,365.0,805.12,16.09,FLUXNET2015,,,,,34.9604,-97.9789,GRA,Cfa,,,1997.0,1998.0,0.9985868461546512,368.0,365,0.26528,0.14475,0.11552,0.38934
US-Lin,9.18,3.8,,131.0,,,AMF_FLX,,,,,36.3566,-119.0922,CRO,BSh,,,2009.0,2010.0,1.1945416015142791,133.0,157,0.21627,0.120292,0.091849,0.37528
US-Los,10.2,6.5,,480.0,828.0,4.08,FLUXNET2015,F15,2.036,63.0,117118,46.08269882,-89.97920227,WET,Dfb,2.0,4.24,2000.0,2014.0,7.891647219409092,479.0,485,0.2822,0.17622,0.10067,0.47495
US-MMS,46.0,4.7,0.11,275.0,1032.0,10.85,AMF_FLX,F15,2.06,178.0,124,39.3232,-86.4131,DBF,Cfa,27.0,4.62,1999.0,2020.0,15.767467055370618,294.0,293,0.34644,0.23011,0.11163,0.45981
US-MOz,32.0,4.7,,212.0,986.0,12.11,FLUXNET2015,LT,1.587,188.0,125,38.74411011,-92.20001221,DBF,Cfa,24.0,4.01,2004.0,2021.0,6.455260492184241,243.0,215,0.36067,0.23136,0.12408,0.46756
US-Me1,10.0,2.5,,896.0,704.61,7.88,AMF_FLX,,,,,44.5794,-121.5,ENF,Csb,,,2004.0,2005.0,5.008342855070096,894.0,859,0.27722,0.16572,0.10666,0.42802
US-Me2,33.0,2.5,0.1,1253.0,523.0,6.28,AMF_FLX,F15,1.14,171.0,119,44.4526,-121.5589,ENF,Csb,16.0,3.58,2002.0,2022.0,6.649705088473455,1260.0,1235,0.31079,0.2001,0.10441,0.4954
US-Me3,18.0,2.5,0.1,1005.0,719.0,7.07,FLUXNET2015,F15,1.13,84.0,120,44.3154,-121.6078,ENF,Csb,16.0,0.52,2004.0,2009.0,5.0229751027138345,1006.0,1008,0.24656,0.149485,0.093027,0.44719
US-Me4,56.0,2.5,0.1,922.0,1038.82,7.61,FLUXNET2015,F15,1.1,134.0,121,44.49919891,-121.6223984,ENF,Csb,20.0,2.0,,,6.259724340814995,933.0,924,0.32605,0.20748,0.11189,0.5009
US-Me5,18.0,2.5,,1188.0,590.81,6.47,FLUXNET2015,F15,1.01,120.0,122,44.437,-121.567,ENF,Csb,4.3,1.1,2000.0,2002.0,6.702633420901926,1181.0,1185,0.34011,0.21752,0.11465,0.52395
US-Me6,17.5,2.5,0.1,998.0,494.0,7.59,FLUXNET2015,F15,1.24,85.0,123,44.32329941,-121.6078033,ENF,Csb,5.199999809,1.8,2010.0,2022.0,5.228689054658395,999.0,1006,0.23817,0.145364,0.088996,0.44106
US-Mo1,3.6,4.0,,260.0,981.0,12.0,AMF_FLX,,,,,39.2298,-92.1167,CRO,Cfa,,,2015.0,2023.0,2.0155468526501674,261.0,259,0.35288,0.19755,0.14941,0.43967
US-Mo2,3.81,3.4,,275.0,981.0,12.0,AMF_FLX,,,,,38.9488,-91.9945,GRA,Cfa,,,2018.0,2023.0,3.2065759771890217,276.0,274,0.36403,0.21108,0.14697,0.45361
US-Mo3,3.5,4.0,,261.0,981.0,12.0,AMF_FLX,,,,,39.2322,-92.1493,CRO,Cfa,,,2016.0,2021.0,2.1088511200765456,263.0,262,0.36317,0.20483,0.15211,0.44913
US-Mpj,8.2,3.7,,2196.0,385.0,10.5,AMF_FLX,,,,,34.4385,-106.2377,WSA,BSk,,,2008.0,2020.0,0.5561491691166399,2191.0,2190,0.26819,0.13295,0.12977,0.39125
US-Myb,5.7,6.5,,-1.0,338.0,15.9,FLUXNET2015,F15,,13.0,,38.04980087,-121.7650986,WET,Csa,1.0,,2010.0,2021.0,0.4283837978744736,-5.0,-2,0.35829,0.18176,0.16876,0.47781
US-NC1,10.5,5.8,,5.0,1320.0,16.6,AMF_FLX,,,,,35.8118,-76.7119,ENF,Cfa,,,2005.0,2012.0,6.542636301469219,24.0,6,0.26555,0.15535,0.1055,0.43868
US-NC3,11.35,5.8,,5.0,1320.0,16.6,AMF_FLX,,,,,35.799,-76.656,ENF,Cfa,,,2013.0,2021.0,4.540179866550621,15.0,5,0.27312,0.15977,0.10846,0.43915
US-NC4,35.15,6.5,,1.0,1311.0,16.6,AMF_FLX,,,,,35.7879,-75.9038,WET,Cfa,,,2009.0,2021.0,8.581640689769527,11.0,1,0.29705,0.16937,0.12206,0.45701
US-NGB,4.15,,,5.273,171.0,-11.27,AMF_FLX,,,,,71.28,-156.6092,SNO,ET,,,2012.0,2019.0,0.0,,4,0.44516,0.26678,0.15957,0.61837
US-NGC,2.75,3.3,,35.0,,,AMF_FLX,,,,,64.8618,-163.7002,GRA,Dfc,,,2017.0,2023.0,1.3876447711440658,,65,0.49015,0.32487,0.14606,0.63773
US-NR1,25.5,2.6,0.1,3050.0,800.0,1.5,AMF_FLX,F15,0.983,105.0,126,40.0329,-105.5464,ENF,Dfc,12.0,3.65,1998.0,2016.0,4.480359793733885,3059.0,3028,0.29208,0.18107,0.10562,0.46779
US-Ne1,6.2,4.0,0.19,361.0,790.37,10.07,AMF_FLX,,,,,41.1651,-96.4766,CRO,Dfa,3.0,,2001.0,2020.0,0.5736868846644236,356.0,354,0.3245,0.17578,0.14322,0.41965
US-Ne2,6.2,4.0,0.12,362.0,788.89,10.08,FLUXNET2015,,,,,41.16490173,-96.4701004,CRO,Dfa,2.5,,2001.0,2013.0,0.5915753549413785,355.0,355,0.32809,0.17638,0.1461,0.42169
US-Ne3,6.2,4.0,0.19,363.0,783.68,10.11,FLUXNET2015,,,,,41.17969894,-96.43969727,CRO,Dfa,2.5,,2001.0,2013.0,0.7224341525131309,358.0,356,0.32818,0.17531,0.14723,0.42036
US-ONA,2.8,4.2,,25.0,1268.0,22.3,AMF_FLX,,,,,27.3836,-81.9509,GRA,Cfa,,,2016.0,2022.0,3.482936977082576,28.0,22,0.080194,0.018367,0.061826,0.42782
US-ORv,15.0,6.5,,221.0,1499.1,11.63,AMF_FLX,,,,,40.0201,-83.0183,WET,Cfa,,,2011.0,2016.0,3.3922411691869714,219.0,239,0.30804,0.17082,0.13182,0.42269
US-OWC,5.77,6.5,,174.0,930.0,10.7,AMF_FLX,,,,,41.3795,-82.5125,WET,Cfa,,,2015.0,2016.0,2.8666271771011487,173.0,180,0.31278,0.18129,0.12563,0.45947
US-Oho,34.0,4.7,,230.0,849.0,10.1,FLUXNET2015,F15,,100.0,127,41.5545,-83.8438,DBF,Dfa,24.5,4.0,2004.0,2013.0,5.675056924821126,213.0,200,0.25473,0.14557,0.10524,0.4582
US-PFa,396.0,,,470.0,823.0,4.33,FLUXNET2015,,,,,45.94589996,-90.27230072,MF,Dfb,30.0,,,,9.092442686770069,470.0,473,0.24893,0.162804,0.081721,0.45712
US-Pnp,60.0,,,260.0,875.0,7.94,AMF_FLX,,,,,43.0896,-89.4158,WAT,Dfb,,,2016.0,2022.0,2.6497977778810844,258.0,259,-3.4e+38,-3.4e+38,-3.4e+38,-3.4e+38
US-Prr,16.0,2.5,0.1,210.0,275.0,-2.0,FLUXNET2015,F15,,29.0,128129,65.123703,-147.4875946,ENF,Dfc,7.0,0.73,2010.0,2014.0,4.987170737642906,,264,0.44165,0.32093,0.11158,0.57291
US-RGA,4.6,4.0,,61.0,1250.0,16.7,AMF_FLX,,,,,34.4159,-91.6733,CRO,Cfa,,,2021.0,2023.0,5.456667018024666,59.0,56,0.31847,0.19729,0.11664,0.42252
US-RGB,2.4,3.8,,33.0,737.0,16.0,AMF_FLX,,,,,39.5782,-121.8579,CRO,Csa,,,2021.0,2023.0,1.93413925739854,35.0,34,0.35156,0.15714,0.18632,0.45572
US-RGo,2.9,3.8,,40.0,610.0,16.0,AMF_FLX,,,,,39.6805,-122.0026,CRO,Csa,,,2021.0,2023.0,5.10376147598005,40.0,39,0.28931,0.14833,0.1354,0.40205
US-Rls,3.05,2.9,,1608.0,333.0,8.4,AMF_FLX,,,,,43.1439,-116.7356,CSH,Dsb,,,2014.0,2023.0,0.7289281997918837,1617.0,1586,0.30554,0.17111,0.12896,0.43008
US-Rms,3.05,2.9,,2111.0,800.0,5.4,AMF_FLX,,,,,43.0645,-116.7486,CSH,Dsb,,,2014.0,2023.0,2.12123833710081,2119.0,2130,0.30365,0.19111,0.1069,0.47434
US-Ro1,3.7,4.0,,290.0,879.0,6.4,AMF_FLX,,,,,44.7143,-93.0898,CRO,Dfa,,,2004.0,2016.0,1.9085931985593547,284.0,296,0.25221,0.14369,0.10414,0.42554
US-Ro2,3.7,4.0,,292.0,879.0,6.4,AMF_FLX,,,,,44.7288,-93.0888,CRO,Dfa,,,2008.0,2016.0,2.169509006523057,284.0,290,0.27291,0.15573,0.11224,0.4339
US-Ro4,3.7,3.6,,274.0,879.0,6.4,AMF_FLX,,,,,44.6781,-93.0723,GRA,Dfa,,,2014.0,2023.0,1.3922303721814724,261.0,273,0.27396,0.16067,0.10839,0.43592
US-Ro5,4.5,4.0,,283.0,879.0,6.4,AMF_FLX,,,,,44.691,-93.0576,CRO,Dfa,,,2017.0,2023.0,1.5828354155350357,281.0,279,0.26098,0.15217,0.10421,0.42974
US-Ro6,3.7,4.0,,282.0,879.0,6.4,AMF_FLX,,,,,44.6946,-93.0578,CRO,Dfa,,,2017.0,2023.0,1.6447717417871404,281.0,290,0.26098,0.15217,0.10421,0.42974
US-Rpf,7.5,4.7,,497.0,450.0,-0.8,AMF_FLX,,,,,65.1198,-147.429,DBF,Dfc,,,2008.0,2023.0,4.378205026517974,,455,0.41801,0.2972,0.11269,0.55412
US-Rwe,5.25,2.9,,2098.0,800.0,5.4,AMF_FLX,,,,,43.0653,-116.7591,CSH,Dsb,,,2003.0,2007.0,2.145022047742198,2095.0,2060,0.32966,0.21046,0.11338,0.4794
US-Rwf,3.57,2.9,,1878.0,505.0,6.5,AMF_FLX,,,,,43.1207,-116.7231,CSH,Dsb,,,2014.0,2023.0,0.9781966207550326,1885.0,1914,0.29511,0.17255,0.11744,0.42871
US-Rws,3.05,3.9,,1425.0,290.0,8.9,AMF_FLX,,,,,43.1675,-116.7132,OSH,Csb,,,2014.0,2023.0,0.2471790109124681,1428.0,1404,0.28354,0.15991,0.11866,0.40344
US-SO2,4.5,2.9,,,,,,LT,0.913,3.0,130,33.374,-116.623,CSH,Csb,1.0,3.0,,,1.2357252592497756,1407.0,1394,0.22094,0.11553,0.10246,0.40193
US-SO3,,2.9,,,,,,LT,0.913,5.0,130,33.377,-116.623,CSH,Csb,0.5,1.1,,,1.1946195611592905,1422.0,1461,0.22196,0.11593,0.103,0.40172
US-SO4,5.8,2.9,,,,,,LT,0.913,6.0,130,33.384,-116.64,CSH,Csb,2.3,3.0,,,1.0213442276717617,1406.0,1433,0.20951,0.10855,0.098609,0.39611
US-SP1,32.0,5.8,,47.0,,,FLUXNET2015,LT,1.12,166.0,131,29.73806953,-82.21877289,ENF,Cfa,22.0,5.5,,,8.297740156868839,45.0,48,0.083296,0.01904,0.064255,0.44927
US-SP2,30.0,5.8,,46.0,,,FLUXNET2015,LT,0.95,168.0,131,29.76479912,-82.24481964,ENF,Cfa,1.0,7.29,,,8.58522708367992,46.0,46,0.076303,0.014477,0.061824,0.45191
US-SP3,30.0,5.8,,36.0,,,FLUXNET2015,LT,0.95,191.0,131,29.75477028,-82.16327667,ENF,Cfa,10.0,6.63,,,7.601357646745643,37.0,36,0.093912,0.028403,0.065505,0.45342
US-SRC,3.75,3.9,,950.0,330.0,22.0,FLUXNET2015,F15,,0.0,,31.908,-110.84,OSH,BSh,1.7,,2008.0,2014.0,0.1628643303261624,995.0,991,0.25711,0.10865,0.14298,0.37821
US-SRG,3.5,3.7,0.16,1291.0,420.0,17.0,AMF_FLX,F15,1.77,0.0,132,31.7894,-110.8277,GRA,Csa,1.0,1.7,2008.0,2023.0,1.5891653002942685,1292.0,1293,0.28052,0.12437,0.15061,0.4174
US-SRM,8.3,3.7,0.19,1120.0,380.0,17.92,FLUXNET2015,F15,3.043,0.0,133,31.82139969,-110.8659973,WSA,BSk,2.5,0.5,2004.0,2014.0,0.6566987593483052,1119.0,1128,0.27618,0.1202,0.15031,0.40437
US-SRS,7.1,3.7,,1169.0,388.0,19.4,AMF_FLX,,,,,31.8173,-110.8508,WSA,BSk,,,2011.0,2018.0,0.8445423758249395,1169.0,1152,0.27604,0.12116,0.14928,0.40646
US-Seg,3.4,3.9,,1596.0,273.304,13.667,AMF_FLX,,,,,34.3623,-106.702,GRA,BSk,,,2007.0,2021.0,0.0033536874742936,1593.0,1589,0.21286,0.10794,0.10153,0.3764
US-Ses,3.2,3.9,,1604.0,275.082,13.722,AMF_FLX,,,,,34.3349,-106.7442,OSH,BSk,,,2007.0,2021.0,0.0539730767607713,1595.0,1586,0.20644,0.10611,0.097179,0.37418
US-Sne,5.43,3.3,,-5.0,311.0,16.09,AMF_FLX,,,,,38.0369,-121.7547,GRA,Csa,,,2016.0,2020.0,0.5169353868367226,-5.0,-2,0.35701,0.18709,0.16248,0.47744
US-Snf,3.49,3.3,,-4.0,,,AMF_FLX,,,,,38.0402,-121.7272,GRA,Csa,,,2018.0,2020.0,0.4990174650598545,-5.0,-1,0.36634,0.19012,0.16858,0.47899
US-Srr,3.4,6.5,,8.0,326.0,15.1,AMF_FLX,,,,,38.2006,-122.0264,WET,Csb,,,2014.0,2017.0,0.2831774298434296,2.0,1,0.30875,0.15145,0.15109,0.42142
US-StJ,3.6,6.5,,6.7,1121.0,13.5,AMF_FLX,,,,,39.0882,-75.4372,WET,Cfa,,,2015.0,2017.0,1.865459684353042,1.0,1,0.23508,0.145934,0.085197,0.4205
US-Syv,36.0,5.5,0.11,540.0,826.0,3.81,AMF_FLX,F15,1.958,124.0,134,46.242,-89.3477,MF,Dfb,27.0,7.53,2001.0,2023.0,11.736142938671582,548.0,533,0.31346,0.215682,0.090597,0.5137
US-Ton,23.5,3.3,0.19,177.0,559.0,15.8,AMF_FLX,F15,2.13,0.0,135,38.4309,-120.966,WSA,Csa,7.099999905,3.28,2001.0,2023.0,1.8700798787359008,171.0,175,0.26067,0.13945,0.11617,0.38997
US-Tw1,4.64,6.5,,-5.0,421.0,15.5,AMF_FLX,F15,,0.0,,38.107,-121.647,WET,Csa,3.43,,2011.0,2023.0,0.2953033581790494,-7.0,-2,0.36241,0.17803,0.17642,0.47365
US-Tw2,5.2,3.8,,-5.0,421.0,15.5,AMF_FLX,,,,,38.0969,-121.6365,CRO,Csa,,,2012.0,2013.0,0.3137850186365276,-5.0,-1,0.36302,0.17776,0.17729,0.47315
US-Tw3,2.8,3.8,,-4.0,421.0,15.6,AMF_FLX,,,,,38.1152,-121.6469,CRO,Csa,,,2013.0,2018.0,0.2953785131913699,-4.0,-2,0.35801,0.17806,0.17215,0.47374
US-Tw4,5.36,6.5,,-5.0,421.0,15.6,FLUXNET2015,,,,,38.10274506,-121.6413269,WET,Csa,0.5,,2013.0,2023.0,0.3023171941213597,-6.0,-2,0.35701,0.17157,0.17753,0.46778
US-Tw5,6.12,6.5,,-5.0,421.0,15.5,AMF_FLX,,,,,38.1072,-121.6426,WET,Csa,,,2018.0,2019.0,0.300529969844816,-6.0,-2,0.36241,0.17803,0.17642,0.47365
US-Twt,3.18,,,-7.0,421.0,15.6,FLUXNET2015,,,,,38.1086998,-121.6530991,CRO,Csa,0.5,,2009.0,2014.0,0.2849272255557004,-9.0,-2,0.36386,0.18205,0.17387,0.47773
US-UM3,5.5,,,234.0,803.0,5.83,AMF_FLX,,,,,45.5686,-84.6707,WAT,Dfb,,,2013.0,2014.0,7.81792497393071,214.0,216,0.30752,0.19013,0.11114,0.49224
US-UMB,48.0,4.7,0.11,234.0,803.0,5.83,FLUXNET2015,F15,1.753,144.0,136,45.55979919,-84.71379852,DBF,Dfb,20.0,7.76,2007.0,2021.0,7.717316503538892,239.0,227,0.23575,0.148212,0.083836,0.46773
US-UMd,32.0,4.7,,239.0,803.0,5.83,AMF_FLX,F15,,139.0,137,45.563,-84.698,DBF,Dfb,23.0,4.52,2007.0,2023.0,7.585259535928544,239.0,228,0.26655,0.1689,0.092809,0.4674
US-Var,2.5,3.3,0.16,129.0,559.0,15.8,AMF_FLX,F15,2.3,1.0,138,38.4133,-120.9508,GRA,Csa,0.550000012,3.9525,2000.0,2021.0,1.965755952559076,159.0,151,0.26346,0.14238,0.11604,0.39229
US-Vcm,23.9,2.6,,3030.0,646.0,6.4,AMF_FLX,,,,,35.8884,-106.5321,ENF,Dfb,,,2007.0,2021.0,3.169186979247528,3041.0,3003,0.31558,0.19357,0.11621,0.47059
US-Vcp,28.2,2.6,,2500.0,550.0,9.8,AMF_FLX,,,,,35.8642,-106.5967,ENF,Dfb,,,2007.0,2023.0,4.740660979044148,2503.0,2542,0.29188,0.17235,0.11438,0.43663
US-WCr,29.6,4.7,0.11,520.0,787.0,4.02,FLUXNET2015,F15,1.877,95.0,118,45.80590057,-90.07990265,DBF,Dfb,24.0,5.36,1999.0,2014.0,8.641291432422367,526.0,515,0.28321,0.19058,0.087821,0.4613
US-WPT,3.2,6.5,,175.0,849.0,10.1,FLUXNET2015,F15,,6.0,,41.465,-82.996,WET,Cfa,1.7,,2011.0,2013.0,1.3432763209356011,172.0,174,0.38536,0.21131,0.16542,0.51269
US-Whs,6.5,3.9,0.25,1370.0,320.0,17.6,FLUXNET2015,F15,,0.0,,31.74379921,-110.0522003,OSH,BSk,0.5,0.57,2007.0,2020.0,0.0055409486973338,1375.0,1371,0.22783,0.10863,0.1154,0.38056
US-Wi0,6.0,5.8,,349.0,,,AMF_FLX,,,,,46.6188,-91.0814,ENF,Dfb,,,2002.0,2002.0,10.836171641335527,342.0,349,0.35184,0.21517,0.12891,0.5154
US-Wi1,9.0,4.7,,352.0,,,AMF_FLX,,,,,46.7305,-91.2329,DBF,Dfb,,,2003.0,2003.0,12.041427378093342,340.0,320,0.33673,0.20128,0.12841,0.49841
US-Wi3,26.0,4.7,,411.0,,,AMF_FLX,F15,,75.0,139,46.635,-91.099,DBF,Dfb,20.5,3.9,2002.0,2004.0,11.276786025591848,399.0,363,0.33966,0.20475,0.12801,0.49572
US-Wi4,23.0,5.8,,352.0,,,AMF_FLX,F15,,126.0,139,46.739,-91.166,ENF,Dfb,18.0,2.8,2002.0,2005.0,12.216665796662667,382.0,352,0.35475,0.21349,0.13265,0.52824
US-Wi5,6.0,5.8,,353.0,,,AMF_FLX,,,,,46.6531,-91.0858,ENF,Dfb,,,2004.0,2004.0,11.604871247440196,363.0,353,0.31905,0.19431,0.11851,0.48326
US-Wi6,3.0,3.9,,371.0,,,AMF_FLX,,,,,46.6249,-91.2982,OSH,Dfb,,,2002.0,2003.0,9.941923727483568,355.0,371,0.3338,0.19134,0.13541,0.49282
US-Wi7,6.0,3.9,,335.0,,,AMF_FLX,,,,,46.6491,-91.0693,OSH,Dfb,,,2005.0,2005.0,11.44803214111414,343.0,340,0.33873,0.19641,0.13522,0.49422
US-Wi8,3.0,4.7,,348.0,,,AMF_FLX,,,,,46.7223,-91.2524,DBF,Dfb,,,2002.0,2002.0,11.610777974082035,398.0,396,0.32037,0.19697,0.117,0.48989
US-Wi9,9.0,5.8,,350.0,,,AMF_FLX,,,,,46.7385,-91.0746,ENF,Dfb,,,2004.0,2005.0,12.426653557693976,369.0,365,0.34725,0.20993,0.12884,0.52762
US-Wjs,10.5,3.8,,1931.0,361.0,15.2,AMF_FLX,,,,,34.4255,-105.8615,SAV,BSk,,,2007.0,2021.0,0.7269747934581017,1926.0,1922,0.23668,0.1179,0.11423,0.38344
US-Wkg,6.4,3.9,0.16,1531.0,407.0,15.64,FLUXNET2015,F15,2.64,0.0,140,31.73649979,-109.9419022,GRA,BSk,1.0,0.9,2004.0,2014.0,0.1313347531293463,1527.0,1524,0.24058,0.11164,0.12499,0.39202
US-Wrc,67.0,2.5,,,,,,LT,0.75,224.0,141,45.82,-121.952,ENF,Csb,24.3,8.7,,,20.866918132072467,394.0,371,0.32906,0.21669,0.10521,0.51386
US-xAB,19.01,2.5,,363.0,2450.59,10.0,AMF_FLX,,,,,45.7624,-122.3303,ENF,Csb,,,2017.0,2023.0,13.560305898843998,390.0,361,0.35025,0.22303,0.11954,0.51944
US-xAE,8.63,3.4,,516.0,778.85,15.5,AMF_FLX,,,,,35.4106,-99.0588,GRA,Cfa,,,2017.0,2021.0,0.3893504059962523,522.0,517,0.25455,0.1298,0.11944,0.37017
US-xBA,9.08,6.5,,6.0,110.0,-12.0,AMF_FLX,,,,,71.2824,-156.6194,WET,ET,,,2019.0,2021.0,0.0,,5,0.44506,0.26492,0.16164,0.61685
US-xBL,8.71,4.7,,183.0,982.55,12.1,AMF_FLX,,,,,39.0603,-78.0716,DBF,Cfa,,,2019.0,2021.0,6.650360850222444,181.0,183,0.34099,0.19901,0.13639,0.44976
US-xBN,19.87,2.5,,263.0,275.0,-2.0,AMF_FLX,,,,,65.154,-147.5026,ENF,Dfc,,,2019.0,2021.0,5.023123953054571,,263,0.46929,0.33235,0.12457,0.60208
US-xBR,35.89,4.7,,232.0,1246.0,5.6,AMF_FLX,,,,,44.0639,-71.2873,DBF,Dfb,,,2017.0,2021.0,15.635946133860283,283.0,283,0.29846,0.199884,0.092436,0.49618
US-xCL,22.7,3.4,,259.0,925.61,17.5,AMF_FLX,,,,,33.4012,-97.57,GRA,Cfa,,,2017.0,2021.0,4.184734159397728,281.0,259,0.25369,0.1278,0.12071,0.38416
US-xCP,8.41,3.9,,1654.0,320.0,8.6,AMF_FLX,,,,,40.8155,-104.7456,GRA,BSk,,,2016.0,2021.0,0.0073845975635654,1656.0,1648,0.27461,0.12314,0.146,0.40904
US-xDC,8.73,3.6,,559.0,489.74,4.9,AMF_FLX,,,,,47.1617,-99.1066,GRA,Dfb,,,2017.0,2021.0,0.0446771016896444,571.0,559,0.35703,0.18526,0.1636,0.49407
US-xDJ,22.55,2.5,,529.0,300.0,-2.0,AMF_FLX,,,,,63.8811,-145.7514,ENF,Dfc,,,2017.0,2023.0,1.376864261741237,,525,0.35528,0.25267,0.095947,0.51981
US-xDL,42.54,5.5,,22.0,1372.0,17.6,AMF_FLX,,,,,32.5417,-87.8039,MF,Cfa,,,2017.0,2021.0,7.963958335577414,36.0,19,0.35169,0.17481,0.16929,0.46896
US-xDS,8.72,,,15.0,1216.09,22.5,AMF_FLX,,,,,28.125,-81.4362,CVM,Cfa,,,2017.0,2021.0,4.843148300454039,19.0,15,0.16529,0.096617,0.06786,0.42606
US-xGR,45.99,4.7,,579.0,1375.0,13.1,AMF_FLX,,,,,35.689,-83.5019,DBF,Cfa,,,2017.0,2021.0,15.098863695325065,590.0,600,0.33044,0.20158,0.12298,0.47044
US-xHA,39.28,4.7,,351.0,1071.0,6.62,AMF_FLX,,,,,42.5369,-72.1727,DBF,Dfb,,,2017.0,2021.0,11.942277383766736,359.0,351,0.28461,0.190457,0.087799,0.50049
US-xHE,9.28,3.9,,705.0,320.0,-4.0,AMF_FLX,,,,,63.8757,-149.2133,OSH,Dfc,,,2017.0,2021.0,1.3053074473229327,,673,0.46315,0.31812,0.13346,0.5926
US-xJE,42.57,5.8,,44.0,1307.97,19.2,AMF_FLX,,,,,31.1948,-84.4686,ENF,Cfa,,,2017.0,2021.0,4.371126021768589,57.0,36,0.16917,0.084157,0.0848,0.44895
US-xJR,8.68,3.9,,1329.0,271.33,15.7,AMF_FLX,,,,,32.5907,-106.8425,OSH,BWk,,,2017.0,2023.0,0.0,1322.0,1331,0.21427,0.09605,0.11567,0.37054
US-xKA,8.53,3.4,,1329.0,850.63,12.7,AMF_FLX,,,,,39.1104,-96.6129,GRA,Cfa,,,2017.0,2021.0,2.4587306449541013,325.0,320,0.32281,0.17526,0.14194,0.42606
US-xKZ,8.5,3.4,,381.0,870.38,12.4,AMF_FLX,,,,,39.1008,-96.5631,GRA,Cfa,,,2017.0,2021.0,2.1901114756690525,412.0,402,0.36531,0.20089,0.15785,0.4632
US-xMB,8.62,3.9,,1767.0,319.46,10.1,AMF_FLX,,,,,38.2483,-109.3883,OSH,BSk,,,2017.0,2021.0,0.3546099290780141,1806.0,1788,0.22394,0.11372,0.1061,0.37794
US-xML,29.21,4.7,,1126.0,1227.82,8.8,AMF_FLX,,,,,37.3783,-80.5248,DBF,Cfb,,,2017.0,2021.0,13.443947594719004,1177.0,1164,0.38062,0.24071,0.13078,0.54204
US-xNG,8.58,3.6,,578.0,456.51,5.9,AMF_FLX,,,,,46.7697,-100.9154,GRA,Dfb,,,2017.0,2021.0,0.7993352070516784,588.0,578,0.27537,0.14457,0.12548,0.40694
US-xNQ,8.8,3.9,,1685.0,288.31,9.0,AMF_FLX,,,,,40.1776,-112.4524,OSH,Cfa,,,2017.0,2021.0,0.1828697623286538,1659.0,1671,0.25536,0.14009,0.11037,0.3801
US-xRM,25.45,2.6,,2743.0,730.59,2.9,AMF_FLX,,,,,40.2759,-105.5459,ENF,Dfc,,,2017.0,2021.0,4.218525906105571,2750.0,2743,0.29001,0.17958,0.1046,0.49144
US-xSB,35.81,5.8,,45.0,1302.09,20.9,AMF_FLX,,,,,29.6893,-81.9934,ENF,Cfa,,,2017.0,2021.0,6.376849231452196,56.0,45,0.064179,0.008115,0.056064,0.42541
US-xSC,51.89,4.7,,361.0,1125.5,11.6,AMF_FLX,,,,,38.8929,-78.1395,DBF,Cfa,,,2019.0,2021.0,11.47844699447054,365.0,363,0.33863,0.21201,0.12095,0.47096
US-xSE,62.04,4.7,,15.0,1074.65,13.6,AMF_FLX,,,,,38.8901,-76.56,DBF,Cfa,,,2017.0,2021.0,7.582332302568983,29.0,15,0.28816,0.16653,0.11638,0.44142
US-xSJ,39.44,3.8,,368.0,539.62,16.4,AMF_FLX,,,,,37.1088,-119.7323,SAV,Csa,,,2019.0,2021.0,1.8984475738899989,398.0,411,0.20834,0.111755,0.093536,0.38613
US-xSL,8.42,4.0,,1364.0,432.67,9.7,AMF_FLX,,,,,40.4619,-103.0293,CRO,BSk,,,2017.0,2023.0,0.007423436711563,1365.0,1364,0.27775,0.1393,0.13289,0.39211
US-xSR,8.41,3.9,,983.0,346.0,19.3,AMF_FLX,,,,,31.9107,-110.8355,OSH,BSh,,,2017.0,2021.0,0.1693830855482176,998.0,983,0.25711,0.10865,0.14298,0.37821
US-xST,22.48,4.7,,481.0,797.56,4.8,AMF_FLX,,,,,45.5089,-89.5864,DBF,Dfb,,,2017.0,2021.0,6.67937153716442,478.0,481,0.2377,0.156101,0.077596,0.43315
US-xTA,35.83,5.8,,135.0,1382.68,17.2,AMF_FLX,,,,,32.9505,-87.3933,ENF,Cfa,,,2017.0,2021.0,14.739786837082622,167.0,135,0.28249,0.15759,0.11966,0.4374
US-xTR,36.06,4.7,,472.0,797.56,4.8,AMF_FLX,,,,,45.4937,-89.5857,DBF,Dfb,,,2017.0,2021.0,6.974529682647344,475.0,472,0.23221,0.154869,0.073326,0.44086
US-xUK,35.86,4.7,,335.0,990.63,12.7,AMF_FLX,,,,,39.0404,-95.1921,DBF,Cfa,,,2017.0,2021.0,4.018910471970566,325.0,304,0.37191,0.21084,0.15437,0.47575
US-xUN,39.23,5.5,,518.0,802.3,4.3,AMF_FLX,,,,,46.2339,-89.5373,MF,Dfb,,,2017.0,2021.0,12.253784685634,529.0,515,0.28802,0.197348,0.085376,0.47831
US-xWD,8.69,3.6,,579.0,493.76,4.9,AMF_FLX,,,,,47.1282,-99.2414,GRA,Dfb,,,2017.0,2023.0,0.054100784106922,584.0,573,0.35626,0.1834,0.16455,0.49665
US-xYE,18.52,2.6,,2116.0,493.44,3.4,AMF_FLX,,,,,44.9535,-110.5391,ENF,Dfb,,,2018.0,2021.0,2.748817258563048,2133.0,2116,0.3345,0.2005,0.12762,0.48108
VU-Coc,,4.1,,,,,,LT,,29.0,142,-15.443,167.192,EBF,Af,16.0,5.65,,,4.366388115134634,85.0,1,0.36551,0.1766,0.18043,0.48208
YA-CON,2.0,,,20.0,,,OzFlux,,,,,-33.613469,150.734864,GRA,Cfa,0.5,,2019.0,2025.0,4.123808713410488,,129,0.25949,0.13004,0.12487,0.41856
YA-Irr,2.0,,,20.0,,,OzFlux,,,,,-33.620812,150.763284,GRA,Cfa,0.5,,2019.0,2024.0,3.041309041404761,,108,0.2721,0.13665,0.13068,0.43762
ZA-Kru,16.0,3.9,0.19,359.0,547.0,21.9,FLUXNET2015,F15,1.89,17.0,143,-25.0196991,31.49690056,SAV,BSh,12.0,0.42,2000.0,2013.0,0.7998443543609814,,357,0.25484,0.11695,0.13451,0.42187
ZM-Mon,33.0,4.0,0.11,1053.0,945.0,25.0,FLUXNET2015,F15,,,,-15.43777847,23.25278091,DBF,Aw,12.0,1.7,2000.0,2009.0,1.6266278781876695,1088.0,1095,0.11221,0.031485,0.080723,0.40419
JYL,,,,3750.0,,,ChinaFlx,,,,,37.8384,101.116,GRA,ET,,,2018.0,2022.0,0.0025374321589318,3792.0,3749,0.33097,0.2034,0.12128,0.48398
ARS,,,,3033.0,,,ChinaFlx,,,,,38.0473,100.4643,GRA,Dwc,,,2013.0,2022.0,0.0752633111439099,3018.0,2991,0.2781,0.16153,0.11171,0.41247
DDS,,,,4148.0,,,ChinaFlx,,,,,38.0142,100.2421,GRA,ET,,,2015.0,2022.0,0.0655778869235945,4143.0,4103,0.32294,0.2012,0.11596,0.47247
DSL,,,,3739.0,,,ChinaFlx,,,,,38.8399,98.9406,WET,ET,,,2013.0,2022.0,0.0,3783.0,3787,0.28742,0.17037,0.1119,0.44239
DMS,,,,1556.0,,,ChinaFlx,,,,,38.8555,100.3722,CRO,BWk,,,2012.0,2022.0,0.314428384227455,1560.0,1560,0.2659,0.15039,0.11073,0.38691
ZYW,,,,1460.0,,,ChinaFlx,,,,,38.9751,100.4464,WET,BWk,,,2012.0,2022.0,0.3049175777881308,1458.0,1436,0.29017,0.16963,0.11568,0.41325
HZZ,,,,1731.0,,,ChinaFlx,,,,,38.7652,100.3186,GRA,BWk,,,2012.0,2022.0,0.2486430602222798,1735.0,1732,0.23018,0.12736,0.098158,0.36839
SDQ,,,,873.0,,,ChinaFlx,,,,,42.0012,101.1374,WSA,BWk,,,2013.0,2022.0,0.7292823438003375,932.0,935,0.23426,0.13033,0.09927,0.37125
HHL,,,,874.0,,,ChinaFlx,,,,,41.9903,101.1335,WSA,BWk,,,2013.0,2022.0,0.7250485620884065,936.0,938,0.23885,0.13546,0.09881,0.37813
HMo,,,,1054.0,,,ChinaFlx,,,,,42.1135,100.9872,GRA,BWk,,,,,0.1738028355512678,925.0,927,0.21874,0.11945,0.094576,0.35691
ARo,,,,3033.0,,,ChinaFlx,,,,,38.0443,100.4646,GRA,Dwc,,,2008.0,2011.0,0.0688945344271842,3029.0,2991,0.2781,0.16153,0.11171,0.41247
GTa,,,,2835.0,,,ChinaFlx,,,,,38.5333,100.25,ENF,ET,,,,,2.9712784099408625,2853.0,2963,0.33448,0.21345,0.11531,0.47655
YKe,,,,1519.0,,,ChinaFlx,,,,,38.8571,100.4103,CRO,BWk,,,2008.0,2011.0,0.3345644813788857,1529.0,1522,0.26675,0.14689,0.11493,0.383
BJT,,,,1562.0,,,ChinaFlx,,,,,38.915,100.3042,CRO,BWk,,,2012.0,2014.0,0.2041761729987105,1565.0,1538,0.22555,0.12176,0.099092,0.36536
SSW,,,,1594.0,,,ChinaFlx,,,,,38.7892,100.4933,GRA,BWk,,,,,0.2078261474408021,1548.0,1553,0.22045,0.120673,0.095333,0.36936
LDi,,,,878.0,,,ChinaFlx,,,,,41.9993,101.1326,GRA,BWk,,,2013.0,2015.0,0.7347911357025779,932.0,937,0.24045,0.13744,0.098475,0.38237
NTi,,,,875.0,,,ChinaFlx,,,,,42.0048,101.1338,CRO,BWk,,,2013.0,2015.0,0.7372624438675937,929.0,935,0.23426,0.13033,0.09927,0.37125
HYL,,,,876.0,,,ChinaFlx,,,,,41.9932,101.1239,WSA,BWk,,,2013.0,2015.0,0.7312776582740289,937.0,939,0.24345,0.13615,0.10264,0.38249
FHK,35.0,,,1079.0,,,JPFLX,,,,,35.44353,138.7647,DNF,Cfb,23.0,,2006.0,2012.0,7.63981308994786,1100.0,1084,0.34972,0.22087,0.12244,0.49293
TSE,32.0,,,70.0,,,JPFLX,,,,,45.0558,142.1073,MF,Dfb,21.0,,2001.0,2012.0,9.55145987371148,80.0,81,0.3435,0.22468,0.11161,0.51461
TMK,27.0,,,140.0,,,JPFLX,,,,,42.73694,141.5187,ENF,Dfb,15.0,,2001.0,2003.0,13.297233600808037,125.0,114,0.34184,0.22223,0.11286,0.50526
JP-Ozm,,,,22.0,,,JapanFlux2024,,,,,34.56347,135.533484,URB,Cfa,,,,,0.6762147207641253,21.0,15,0.3283,0.18516,0.13726,0.44908
JP-BBY,,,,17.0,,,JapanFlux2024,,,,,43.32296,141.81079,WET,Dfb,,,,,3.0566897624958305,16.0,16,0.40839,0.24101,0.15724,0.54968
JP-Om1,,,,27.0,,,JapanFlux2024,,,,,34.547178,135.502861,URB,Cfa,,,,,0.7430234026433202,30.0,31,0.33246,0.18612,0.1403,0.45283
JP-Om2,,,,30.0,,,JapanFlux2024,,,,,34.542453,135.508228,GRA,Cfa,,,,,0.7930954660718235,27.0,31,0.33246,0.18612,0.1403,0.45283
JP-Api,,,,831.0,,,JapanFlux2024,,,,,40.001359,140.936586,DBF,Dfb,,,,,12.104065072367648,839.0,801,0.37888,0.24284,0.12712,0.54091
JP-Fjy,,,,1043.0,,,JapanFlux2024,,,,,35.45454,138.76225,ENF,Dfb,,,,,7.884415679011058,1038.0,1033,0.34164,0.21078,0.12449,0.48637
KH-Kmp,,,,95.0,,,JapanFlux2024,,,,,12.74458,105.478566,EBF,Am,,,,,12.728950996365452,94.0,115,0.29437,0.14691,0.14169,0.448
JP-Kwg,,,,41.0,,,JapanFlux2024,,,,,35.8725,139.4869,DBF,Cfa,,,,,0.9163509120649316,40.0,25,0.33127,0.17977,0.14472,0.47193
JP-Kzw,,,,1385.0,,,JapanFlux2024,,,,,36.406667,138.5725,DBF,Dfb,,,,,8.821111716509206,1385.0,1400,0.35568,0.22379,0.12496,0.50383
MY-LHP,,,,140.0,,,JapanFlux2024,,,,,4.201007,114.039079,EBF,Af,,,,,7.91793792740663,140.0,211,0.4123,0.21972,0.17875,0.57452
JP-MBF,,,,596.0,,,JapanFlux2024,,,,,44.384167,142.318611,DBF,Dfb,,,,,9.56327800829876,596.0,533,0.42477,0.26546,0.1465,0.5839
JP-MMF,,,,343.0,,,JapanFlux2024,,,,,44.321944,142.261389,MF,Dfb,,,,,9.989150831678472,349.0,372,0.41003,0.26254,0.13623,0.57046
JP-Mra,,,,43.0,,,JapanFlux2024,,,,,37.690275,139.194429,CRO,Cfa,,,,,9.445408291773722,42.0,64,0.38096,0.21485,0.15736,0.52013
RU-NeB,,,,221.0,,,JapanFlux2024,,,,,62.325937,129.487342,GRA,Dfd,,,,,4.6281552657667975,,233,0.4937,0.2931,0.18164,0.6337
RU-NeC,,,,221.0,,,JapanFlux2024,,,,,62.314844,129.500075,OSH,Dfd,,,,,4.653371281028111,,219,0.50613,0.30301,0.18277,0.64379
RU-NeF,,,,223.0,,,JapanFlux2024,,,,,62.315615,129.499964,DNF,Dfd,,,,,4.6535005604887685,,220,0.49904,0.29805,0.18183,0.6364
ID-PaB,,,,14.0,,,JapanFlux2024,,,,,-2.340796,114.0379,OSH,Am,,,,,5.601460360719382,15.0,51,0.5099,0.26344,0.21712,0.66663
CN-HaM,,,,3250.0,,,JapanFlux2024,,,,,37.607432,101.332,GRA,Bsk,,,,,0.005167068549776,3199.0,3192,0.30702,0.18634,0.11538,0.44928
JP-Sac,,,,17.0,,,JapanFlux2024,,,,,34.573914,135.482889,URB,Cfa,,,,,0.5105230497386328,11.0,7,0.33404,0.18982,0.13805,0.46148
JP-Sb1,,,,6.0,,,JapanFlux2024,,,,,45.104722,141.688194,WET,Dfb,,,,,2.707516310501628,4.0,1,0.42373,0.2598,0.14867,0.59712
JP-Sb2,,,,4.0,,,JapanFlux2024,,,,,45.103611,141.680833,WET,Dfb,,,,,2.4271054239603176,2.0,1,0.40096,0.2467,0.14073,0.58171
JP-Srk,,,,340.0,,,JapanFlux2024,,,,,40.565485,140.127794,DBF,Dfa,,,,,14.640496827116548,341.0,340,0.37868,0.25023,0.11933,0.54644
JP-SwL,,,,758.0,,,JapanFlux2024,,,,,36.046572,138.108353,WAT,Dfc,,,,,8.73003543059013,757.0,751,0.30553,0.17728,0.12273,0.44546
JP-Ta2,,,,800.0,,,JapanFlux2024,,,,,36.139722,137.370833,ENF,Dfb,,,,,11.20964447103976,809.0,900,0.31322,0.19357,0.11416,0.46116
JP-Tak,,,,1420.0,,,JapanFlux2024,,,,,36.146167,137.423111,DBF,Dfb,,,,,12.252519729715782,1424.0,1351,0.36327,0.23429,0.12208,0.50861
JP-Tmk,,,,140.0,,,JapanFlux2024,,,,,42.736972,141.516944,DNF,Dfb,,,,,13.292197042676378,128.0,114,0.34184,0.22223,0.11286,0.50526
RU-Tur,,,,250.0,,,JapanFlux2024,,,,,64.208888,100.463555,DNF,Dfc,,,,,4.072061980771025,,194,0.3797,0.22028,0.15057,0.52661
JP-Yms,,,,220.0,,,JapanFlux2024,,,,,34.790278,135.840939,DBF,Cfa,,,,,6.110489818612898,218.0,179,0.326,0.18742,0.1325,0.46225
JP-Ynf,,,,213.0,,,JapanFlux2024,,,,,26.751,128.212667,EBF,Cfa,,,,,5.195058874686745,213.0,252,0.35965,0.20056,0.15139,0.49758
MN-Hst,,,,1227.0,,,JapanFlux2024,,,,,47.594131,105.856439,GRA,Bsk,,,,,0.0033279582804405,1227.0,1240,0.29333,0.1492,0.13833,0.42251
MN-Nkh,,,,1531.0,,,JapanFlux2024,,,,,47.693592,107.489342,GRA,Bsk,,,,,0.1470784612487373,1532.0,1526,0.30971,0.17758,0.12598,0.47655
JP-Hc3,,,,0.0,,,JapanFlux2024,,,,,34.539672,133.911731,CRO,Cfa,,,,,3.611961188752315,1.0,74,0.34646,0.19207,0.14806,0.46021
RU-Ege,,,,203.0,,,JapanFlux2024,,,,,60.015516,133.824012,DNF,Dfd,,,,,9.468582106984352,,228,0.51114,0.2949,0.1958,0.6428
JP-KaL,,,,0.0,,,JapanFlux2024,,,,,36.037778,140.404167,WAT,Cfa,,,,,1.5335908771639877,0.0,1,-3.4e+38,-3.4e+38,-3.4e+38,-3.4e+38
JP-Nkm,,,,2641.0,,,JapanFlux2024,,,,,35.808064,137.833883,ENF,Dfb,,,,,8.72055654552236,2636.0,2500,0.3004,0.18942,0.10551,0.46959
ID-PaD,,,,26.0,,,JapanFlux2024,,,,,-2.346071,114.036408,EBF,Am,,,,,5.9821825708005,27.0,52,0.52716,0.26449,0.22929,0.68183
ID-Pag,,,,22.0,,,JapanFlux2024,,,,,-2.323917,113.904392,EBF,Am,,,,,6.09447108277307,22.0,69,0.58075,0.26532,0.2661,0.73238
JP-SMF,,,,212.0,,,JapanFlux2024,,,,,35.261528,137.07875,MF,Cfa,,,,,5.990976894591357,203.0,181,0.31649,0.18159,0.12889,0.46169
RU-SkP,,,,217.0,,,JapanFlux2024,,,,,62.25471,129.618543,DNF,Dfd,,,,,5.374970596537444,,216,0.50138,0.30507,0.17623,0.64212
RU-Sk2,,,,216.0,,,JapanFlux2024,,,,,62.241291,129.651336,ENF,Dfd,,,,,4.847590467784641,,197,0.49729,0.3028,0.17565,0.63564
JP-Hc1,,,,0.0,,,JapanFlux2024,,,,,34.537892,133.926797,CRO,Cfa,,,,,3.441924825321997,0.0,61,0.34702,0.19854,0.14205,0.47103
JP-KaP,,,,3.0,,,JapanFlux2024,,,,,36.08,140.24,CRO,Cfa,,,,,1.9423400543046216,1.0,2,0.34465,0.1917,0.14591,0.4818
JP-Km1,,,,4.0,,,JapanFlux2024,,,,,43.107511,144.330906,WET,Dfb,,,,,5.317939279007939,3.0,18,0.3578,0.22589,0.1239,0.52408
JP-Nsb,,,,24.0,,,JapanFlux2024,,,,,36.024303,140.114975,CRO,Cfa,,,,,1.747781439507423,25.0,20,0.29835,0.17308,0.11981,0.44697
CN-In1,,,,356.0,,,JapanFlux2024,,,,,42.929708,120.70735,BSV,Bsk,,,,,0.1316851712019091,356.0,347,0.2273,0.127818,0.095132,0.38052
CN-In2,,,,355.0,,,JapanFlux2024,,,,,42.933964,120.710964,GRA,Bsk,,,,,0.122442321137264,356.0,348,0.23408,0.1294,0.10024,0.38705
CN-In3,,,,354.0,,,JapanFlux2024,,,,,42.925572,120.699039,CRO,Bsk,,,,,0.1392664690197833,356.0,351,0.21684,0.121001,0.091642,0.37378
CN-In4,,,,354.0,,,JapanFlux2024,,,,,42.944133,120.726622,CRO,Bsk,,,,,0.0990922139169012,354.0,345,0.23262,0.12851,0.09971,0.38653
CN-In5,,,,355.0,,,JapanFlux2024,,,,,42.934158,120.709078,GRA,Bsk,,,,,0.122596041800673,357.0,348,0.23408,0.1294,0.10024,0.38705
CN-In6,,,,355.0,,,JapanFlux2024,,,,,42.934014,120.711547,GRA,Bsk,,,,,0.1220787695175949,356.0,348,0.23408,0.1294,0.10024,0.38705
CN-In7,,,,355.0,,,JapanFlux2024,,,,,42.933919,120.709606,GRA,Bsk,,,,,0.1229700755103943,358.0,348,0.23408,0.1294,0.10024,0.38705
CN-In8,,,,355.0,,,JapanFlux2024,,,,,42.933967,120.710531,GRA,Bsk,,,,,0.1226169722846302,356.0,348,0.23408,0.1294,0.10024,0.38705
JP-Hc2,,,,1.0,,,JapanFlux2024,,,,,34.537518,133.927545,CRO,Cfa,,,,,3.440143957570401,-1.0,61,0.34702,0.19854,0.14205,0.47103
JP-Ako,,,,10.0,,,JapanFlux2024,,,,,34.735192,134.374798,EBF,Cfa,,,,,3.274469045594364,8.0,-9999,0.31082,0.1831,0.12234,0.44271
JP-Fhk,,,,1105.0,,,JapanFlux2024,,,,,35.443556,138.764693,DNF,Cfa,,,,,7.640538318223927,1100.0,1084,0.34972,0.22087,0.12244,0.49293
JP-Fmt,,,,168.0,,,JapanFlux2024,,,,,35.638745,139.379748,MF,Cfa,,,,,1.8013558547802704,166.0,140,0.31718,0.17743,0.13353,0.46501
MN-Kbu,,,,1235.0,,,JapanFlux2024,,,,,47.213972,108.737333,GRA,Bsk,,,,,0.0,1247.0,1251,0.27907,0.13937,0.13417,0.41342
JP-Khw,,,,196.0,,,JapanFlux2024,,,,,33.13658,130.70834,ENF,Cfa,,,,,6.829070799773233,198.0,199,0.33008,0.19739,0.12659,0.47222
CN-Lsh,,,,340.0,,,JapanFlux2024,,,,,45.279839,127.578206,DNF,Cfc,,,,,9.64530492666887,392.0,352,0.37022,0.23552,0.12783,0.50634
JP-Mse,,,,11.0,,,JapanFlux2024,,,,,36.05393,140.02693,CRO,Cfa,,,,,1.4162088479491095,13.0,20,0.32176,0.18021,0.13547,0.45522
JP-Nuf,,,,66.0,,,JapanFlux2024,,,,,35.152417,136.971889,DBF,Cfa,,,,,1.317850428243158,63.0,42,0.31543,0.17538,0.13412,0.44846
JP-Shn,,,,775.0,,,JapanFlux2024,,,,,35.865755,137.932563,MF,Dfa,,,,,6.508344721911624,792.0,772,0.33274,0.19453,0.13216,0.46469
JP-Spp,,,,173.0,,,JapanFlux2024,,,,,42.986843,141.385331,DBF,Dfb,,,,,6.808535608502076,182.0,185,0.36103,0.23271,0.121,0.51592
MN-Skt,,,,1630.0,,,JapanFlux2024,,,,,48.351861,108.654333,DNF,Dwc,,,,,1.628513954392549,1614.0,1598,0.35355,0.21558,0.1305,0.50934
JP-Tdf,,,,89.0,,,JapanFlux2024,,,,,35.035889,137.185778,DBF,Cfa,,,,,4.389664731419009,104.0,27,0.30886,0.17168,0.1313,0.44972
JP-Tgf,,,,27.0,,,JapanFlux2024,,,,,36.11353,140.09488,GRA,Cfa,,,,,2.270361465674692,29.0,25,0.30456,0.17357,0.12526,0.45334
JP-Toc,,,,96.0,,,JapanFlux2024,,,,,42.709727,141.565898,DBF,Dfb,,,,,11.319745902252825,97.0,62,0.32276,0.2091,0.10737,0.49481
JP-Tom,,,,90.0,,,JapanFlux2024,,,,,42.698906,141.571488,DBF,Dfb,,,,,13.29765845630178,82.0,60,0.32136,0.20414,0.11084,0.49425
JP-Tef,,,,79.0,,,JapanFlux2024,,,,,45.055808,142.107122,DNF,Dfb,,,,,9.55790837208884,80.0,81,0.3435,0.22468,0.11161,0.51461
MN-Udg,,,,1342.0,,,JapanFlux2024,,,,,48.256389,106.851111,DNF,Dwc,,,,,2.8196221557951087,1336.0,1395,0.38734,0.24486,0.13346,0.54172
JP-Kgu,,,,18.0,,,JapanFlux2024,,,,,35.582859,139.693543,URB,Cfa,,,,,0.48885795318782,19.0,16,0.3217,0.16427,0.15075,0.45712
JP-Yrp,,,,23.0,,,JapanFlux2024,,,,,36.007667,140.030175,CRO,Cfa,,,,,1.578590617896259,23.0,20,0.32026,0.17797,0.13613,0.4572
JP-Hrt,,,,6.0,,,JapanFlux2024,,,,,35.362778,139.338056,CRO,Cfa,,,,,1.492707269810181,7.0,19,0.33684,0.17789,0.15192,0.47097
TH-Kms,,,,4.0,,,JapanFlux2024,,,,,14.009167,99.984167,CRO,Aw,,,,,1.14665154366766,6.0,6,0.32202,0.13916,0.17569,0.42353
JP-Tkb,,,,341.0,,,JapanFlux2024,,,,,36.173379,140.176634,ENF,Cfa,,,,,4.459499035814095,343.0,300,0.3194,0.18391,0.12939,0.46539
TH-Kog,,,,1265.0,,,JapanFlux2024,,,,,18.8,98.9,EBF,Af,,,,,8.649134317477676,1264.0,1104,0.35379,0.17402,0.17124,0.49458
TH-Mae,,,,380.0,,,JapanFlux2024,,,,,18.383333,99.716667,DBF,Aw,,,,,6.910386494025362,347.0,338,0.31123,0.15155,0.15326,0.43196
JP-Nap,,,,40.0,,,JapanFlux2024,,,,,34.77485,134.892442,WAT,Cfa,,,,,2.0431133075220083,37.0,42,0.31209,0.17246,0.13395,0.43521
JP-Km2,,,,7.0,,,JapanFlux2024,,,,,43.1,144.35,WET,Dfb,,,,,5.0443210978467015,3.0,3,0.40148,0.24169,0.149,0.55846
RU-USk,,,,143.0,,,JapanFlux2024,,,,,62.150995,130.527517,GRA,Dfb,,,,,4.244570444099616,,132,0.50398,0.30767,0.17631,0.64269
JP-NsM,,,,320.0,,,JapanFlux2024,,,,,36.915833,139.935833,GRA,Cfa,,,,,4.9137127150565,306.0,306,0.31286,0.1755,0.13142,0.45297
JP-NsC,,,,320.0,,,JapanFlux2024,,,,,36.915,139.936667,GRA,Cfa,,,,,4.85162597487222,309.0,306,0.31286,0.1755,0.13142,0.45297
JP-Tmd,,,,117.0,,,JapanFlux2024,,,,,42.735911,141.523147,DNF,Dfb,,,,,13.279893007117268,117.0,114,0.34184,0.22223,0.11286,0.50526
